설치장소명	설치장소상세	설치시도명	설치시군구명	설치시설구분	서비스제공사명	와이파이SSID	설치년월	소재지도로명주소	소재지지번주소	관리기관명	관리기관전화번호	위도	경도	데이터기준일자
보령시 현대시장	시장상가 내	충청남도	보령시	기타	LGU		Dec-14	충청남도 보령시 대흥로 16	충청남도 보령시 동대동 618-69	충청남도 보령시	041-930-4000	36.3492674	126.596682	2016-08-08
미산 보건지소	보건지소 내	충청남도	보령시	관공서	LGU		Dec-14	충청남도 보령시 내평봉성길 5	충청남도 보령시 미산면 내평리 350-1	충청남도 보령시	041-930-4000	36.240691	126.681069	2016-08-08
대천2동 민원실	동사무소 로비	충청남도	보령시	관공서	LGU		Nov-15	충청남도 보령시 중앙로 142-16	충청남도 보령시 대천동 408-7	충청남도 보령시	041-930-4000	36.3534103	126.589781	2016-08-08
대천애육원	애육원 내	충청남도	보령시	서민·복지시설	LGU		Nov-15	충청남도 보령시 마루뜰길 36	충청남도 보령시 신흑동 647-2	충청남도 보령시	041-930-4000	36.3192306	126.523719	2016-08-08
농업기술센터 교육관	교육관 내	충청남도	보령시	관공서	LGU		Nov-15	충청남도 보령시 주포면 충서로 3220	충청남도 보령시 주포면 관산리 432	충청남도 보령시	041-930-4000	36.397027	126.571342	2016-08-08
명천종합사회복지관	복지관 내	충청남도	보령시	서민·복지시설	LGU		Nov-15	충청남도 보령시 주공로 50	충청남도 보령시 명천동 413	충청남도 보령시	041-930-4000	36.3425521	126.603428	2016-08-08
청소년문화의집	문화의집 로비	충청남도	보령시	서민·복지시설	LGU		Nov-15	충청남도 보령시 문화원길 9	충청남도 보령시 동대동 983-9	충청남도 보령시	041-930-4000	36.3505615	126.600098	2016-08-08
청소년수련관	수련관 로비	충청남도	보령시	서민·복지시설	LGU		Nov-15	충청남도 보령시 성주면 성주산로 500	충청남도 보령시 주면 성주리 229-7	충청남도 보령시	041-930-4000	36.3266555	126.650867	2016-08-08
수도사업소	수도사업소 내	충청남도	보령시	관공서	LGU		Nov-15	충청남도 보령시 대천로 35	충청남도 보령시 대천동 170-1	충청남도 보령시	041-930-4000	36.3519472	126.597337	2016-08-08
오천면어항출장소	어항출장소 내	충청남도	보령시	관공서	LGU		Nov-15	충청남도 보령시 대천항중앙길 42	충청남도 보령시 신흑동 2240-3	충청남도 보령시	041-930-4000	36.3273042	126.509232	2016-08-08
한내시장2	한내시장 입구	충청남도	보령시	기타	LGU		Nov-15	충청남도 보령시 대천로 5-1	충청남도 보령시 대천동 201-7	충청남도 보령시	041-930-4000	36.3494094	126.59625	2016-08-08
공성면 보건지소	대기실	경상북도	상주시	관공서	LGU		Dec-13	경상북도 상주시 공성면 공성중앙로 61	경상북도 상주시 공성면 옥산리 307-2	경상북도 상주시청	054-537-7082	36.2830974	128.0925686	2015-09-30
상주지역자활센터	대기실	경상북도	상주시	서민·복지시설	LGU		Dec-13	경상북도 상주시 중앙로 146	경상북도 상주시 남성동 50	경상북도 상주시청	054-537-7082	36.4155311	128.1540955	2015-09-30
상주 중앙시장	대기실	경상북도	상주시	편의시설	LGU		Dec-13	경상북도 상주시 풍물시장길 15	경상북도 상주시 남성동 85-10	경상북도 상주시청	054-537-7082	36.413401	128.1606886	2015-09-30
상주시 보건소	대기실	경상북도	상주시	관공서	LGU		Dec-13	경상북도 상주시 중앙로 111	경상북도 상주시 무양동 33-4	경상북도 상주시청	054-537-7082	36.4164612	128.1501593	2015-09-30
상주시 보건소	2층복도	경상북도	상주시	관공서	LGU		Dec-13	경상북도 상주시 중앙로 111	경상북도 상주시 무양동 33-4	경상북도 상주시청	054-537-7082	36.4164612	128.1501593	2015-09-30
청리면 보건지소	대기실	경상북도	상주시	관공서	LGU		Dec-13	경상북도 상주시 청리면 남상주로 1163	경상북도 상주시 청리면 월로리 661-1	경상북도 상주시청	054-537-7082	36.3397774	128.1319272	2015-09-30
함창읍 보건지소	대기실	경상북도	상주시	관공서	LGU		Dec-13	경상북도 상주시 함창읍 함창중앙로 130	경상북도 상주시 함창읍 구향리 203-1	경상북도 상주시청	054-537-7082	36.5691024	128.1784382	2015-09-30
함안군 농업기술센터	건물 내	경상남도	함안군	편의시설	LGU	Public WiFi Free	Dec-14	경상남도 함안군 가야읍 함안대로 755	경상남도 함안군 가야읍 산서리 684-513	함안군	055-580-2114	35.293065	128.3985135	2016-09-13
함안노인복지회관	건물 내	경상남도	함안군	편의시설	LGU	Public WiFi Free	Dec-14	경상남도 함안군 가야읍 중앙남길 67	경상남도 함안군 가야읍 말산리 100	함안군	055-580-2114	35.2757186	128.410266	2016-09-13
화남면 보건지소	대기실	경상북도	상주시	관공서	LGU		Dec-13	경상북도 상주시 화남면 영남제일로 4627	경상북도 상주시 화남면 평온리 162-8	경상북도 상주시청	054-537-7082	36.4476906	127.9060238	2015-09-30
화북면 보건지소	대기실	경상북도	상주시	관공서	LGU		Dec-13	경상북도 상주시 화북면 문장로 1685	경상북도 상주시 화북면 용유리 350-20	경상북도 상주시청	054-537-7082	36.5593337	127.9204549	2015-09-30
송강재래시장	시장 내	대전광역시	유성구	기타	LGU				대전광역시 유성구 송강동 49-10	대전광역시 유성구청	042-611-2183	36.4351311	127.3866591	2016-07-28
남원동 주민센터	민원실	경상북도	상주시	관공서	LGU		Dec-14	경상북도 상주시 중앙로 132	경상북도 상주시 낙양동 11-3	경상북도 상주시청	054-537-7082	36.4155304	128.152584	2015-09-30
북문동 주민센터	민원실	경상북도	상주시	관공서	LGU		Dec-14	경상북도 상주시 북천로 63	경상북도 상주시 만산동 677-30	경상북도 상주시청	054-537-7082	36.4289219	128.1578273	2015-09-30
계림동 주민센터	민원실	경상북도	상주시	관공서	LGU		Dec-14	경상북도 상주시 냉림1길 50	경상북도 상주시 냉림동 705-19	경상북도 상주시청	054-537-7082	36.422093	128.164288	2015-09-30
동문동 주민센터	민원실	경상북도	상주시	관공서	LGU		Dec-14	경상북도 상주시 복룡2길 23	경상북도 상주시 복룡동 288-3	경상북도 상주시청	054-537-7082	36.417306	128.1691306	2015-09-30
동성동 주민센터	민원실	경상북도	상주시	관공서	LGU		Dec-14	경상북도 상주시 성동새싹길 42	경상북도 상주시 성동동 120-1	경상북도 상주시청	054-537-7082	36.4152715	128.1697657	2015-09-30
대구장애인종합복지관	휴게실	대구광역시	수성구	서민·복지시설	LGU		Dec-13	대구광역시 수성구 파동로51길 26-17(파동)	대구광역시 수성구 파동 1-1	대구광역시 수성구청	053-666-2474	35.826319	128.60706	2015-09-23
애활원	휴게실	대구광역시	수성구	서민·복지시설	LGU		Dec-13	대구광역시 수성구 파동로51길 74(파동)	대구광역시 수성구 파동 13-5	대구광역시 수성구청	053-666-2474	35.823076	128.608629	2015-09-23
황금시장	시장 입구	대구광역시	수성구	서민·복지시설	LGU		Dec-13	대구광역시 수성구 희망로 201(황금동)	대구광역시 수성구 황금2동 764	대구광역시 수성구청	053-666-2474	35.846844	128.620966	2015-09-23
노인종합복지회관	휴게실	대구광역시	수성구	서민·복지시설	LGU		Dec-13	대구광역시 수성구 청수로35길 47(황금동)	대구광역시 수성구 황금동 478-4	대구광역시 수성구청	053-666-2474	35.841452	128.629901	2015-09-23
보건소 고산분소	민원실	대구광역시	수성구	서민·복지시설	LGU		Dec-14	대구광역시 수성구 달구벌대로 3166-1(노변동)	대구광역시 수성구 노변동 26-4	대구광역시 수성구청	053-666-2474	35.840969	128.702949	2015-09-23
수성현대시장	시장 입구	대구광역시	수성구	서민·복지시설	LGU		Dec-14	대구광역시 수성구 신천동로 280(수성동1가)	대구광역시 수성구 수성동1가 649-76	대구광역시 수성구청	053-666-2474	35.849512	128.609412	2015-09-23
다문화가족센터	센터 내 1층	대전광역시	유성구	서민·복지시설	LGU				대전광역시 유성구 관평동 767	대전광역시 유성구청	042-611-2183	36.4264701	127.3944401	2016-07-28
동화울 수변공원	센터 내 1층	대전광역시	유성구	지역문화시설	LGU				대전광역시 유성구 관평동 771	대전광역시 유성구청	042-611-2183	36.4246031	127.3942911	2016-07-28
노은농수산물도매시장	민원실	대전광역시	유성구	기타	LGU				대전광역시 유성구 노은동 566	대전광역시 유성구청	042-611-2183	36.3651201	127.3202621	2016-07-28
구즉보건지소	민원실	대전광역시	유성구	관공서	LGU				대전광역시 유성구 봉산동 813-1	대전광역시 유성구청	042-611-2183	36.4404001	127.3833951	2016-07-28
선운산유스호스텔	"1,2,3층"	전라북도	고창군	관광	LGU	Public Wifi FREE	2013-11-30	전라북도 고창군 아산면 선운사로 158-36	전라북도 고창군 아산면 삼인리 334	선운산유스호스텔	063-560-2338	35.503203	126.583037	2016-10-26
군민복지회관	1층 로비	전라북도	고창군	서민·복지시설	LGU	Public Wifi FREE	2014-11-30	전라북도 고창군 고창읍  월곡14길 19	전라북도 고창군 고창읍 월곡리 620	군민복지회관	063-560-8087	35.437477	126.713096	2016-10-26
고수면사무소	민원실	전라북도	고창군	관공서	LGU	Public Wifi FREE	2014-11-30	전라북도 고창군 고수면 고인돌대로 1412	전라북도 고창군 고수면 봉산리 359-5	고수면사무소	063-560-8151	35.409887	126.678707	2016-10-26
아산면사무소	민원실	전라북도	고창군	관공서	LGU	Public Wifi FREE	2014-11-30	전라북도 고창군 아산면 녹두로 786	전라북도 고창군 아산면 하갑리 190-2	아산면사무소	063-560-8181	35.439762	126.634935	2016-10-26
무장면사무소	민원실	전라북도	고창군	관공서	LGU	Public Wifi FREE	2014-11-30	전라북도 고창군 무장면 녹두로 8	전라북도 고창군 무장면 성내리 75	무장면사무소	063-560-8212	35.419244	126.560852	2016-10-26
유성구 노인복지관	센터 내 1층	대전광역시	유성구	서민·복지시설	LGU				대전광역시 유성구 신성동 372번지	대전광역시 유성구청	042-611-2183	36.3847431	127.3439811	2016-07-28
대전시립 장애인종합복지관	센터 내 1층	대전광역시	유성구	서민·복지시설	LGU				대전광역시 유성구 용계동 319-1	대전광역시 유성구청	042-611-2183	36.3213721	127.3210561	2016-07-28
성세재활자립원	센터 내 1층	대전광역시	유성구	서민·복지시설	LGU				대전광역시 유성구 용계동 319-1	대전광역시 유성구청	042-611-2183	36.3213721	127.3210561	2016-07-28
성세시온의집	센터 내 1층	대전광역시	유성구	서민·복지시설	LGU				대전광역시 유성구 용계동 319-3	대전광역시 유성구청	042-611-2183	36.3218921	127.3224931	2016-07-28
진잠보건지소	민원실	대전광역시	유성구	관공서	LGU				대전광역시 유성구 원내동 90-12	대전광역시 유성구청	042-611-2183	36.3014021	127.3196651	2016-07-28
봉명꿈지역아동센터	센터 내 1층	대전광역시	유성구	서민·복지시설	LGU				대전광역시 유성구 봉명동 558-10	대전광역시 유성구청	042-611-2183	36.3503301	127.3397611	2016-07-28
사랑빛지역아동센터	센터 내 1층	대전광역시	유성구	서민·복지시설	LGU				대전광역시 유성구 전민동 360-14	대전광역시 유성구청	042-611-2183	36.3971781	127.4004921	2016-07-28
송강지역아동센터	센터 내 1층	대전광역시	유성구	서민·복지시설	LGU				대전광역시 유성구 송강동 49-4	대전광역시 유성구청	042-611-2183	36.4350411	127.3872471	2016-07-28
송강테크노지역아동센터	센터 내 1층	대전광역시	유성구	서민·복지시설	LGU				대전광역시 유성구 송강동 171	대전광역시 유성구청	042-611-2183	36.4320051	127.3809361	2016-07-28
중앙지역아동센터	센터 내 1층	대전광역시	유성구	서민·복지시설	LGU				대전광역시 유성구 신성동 150-12	대전광역시 유성구청	042-611-2183	36.3883111	127.3525671	2016-07-28
인애자립생활관	생활관 1층	대전광역시	유성구	서민·복지시설	LGU				대전광역시 유성구 신성동 145-10	대전광역시 유성구청	042-611-2183	36.3894471	127.3525181	2016-07-28
노인보호전문기관	지하 1층	대전광역시	유성구	서민·복지시설	LGU				대전광역시 유성구 도룡동 383-18 부선빌딩 지하1층	대전광역시 유성구청	042-611-2183	36.3871231	127.3788991	2016-07-28
금성행복경로당	경로당입구	대전광역시	유성구	서민·복지시설	LGU				대전광역시 유성구 신성동 206	대전광역시 유성구청	042-611-2183	36.3871451	127.3484111	2016-07-28
노은역 광장(동편)	"광장, 지하매장, 지하철입구"	대전광역시	유성구	기타	LGU				대전광역시 유성구 지족동 962	대전광역시 유성구청	042-611-2183	36.3748001	127.3224141	2016-07-28
어은동 경로당	경로당입구	대전광역시	유성구	서민·복지시설	LGU				대전광역시 유성구 어은동 108	대전광역시 유성구청	042-611-2183	36.3626301	127.3553581	2016-07-28
전민동 제1경로당	"큰방, 작은방"	대전광역시	유성구	서민·복지시설	LGU				대전광역시 유성구 전민동 369-1	대전광역시 유성구청	042-611-2183	36.3977201	127.4032021	2016-07-28
전민동 제2경로당	방	대전광역시	유성구	서민·복지시설	LGU				대전광역시 유성구 전민동 346-6	대전광역시 유성구청	042-611-2183	36.3983121	127.4011331	2016-07-28
"구즉체육관(1층,2층)"	"1층 , 2층 천장"	대전광역시	유성구	기타	LGU				대전광역시 유성구 송강동 9	대전광역시 유성구청	042-611-2183	36.4349801	127.3840941	2016-07-28
"진잠체육관(1층,2층)"	"1층 , 2층 천장"	대전광역시	유성구	기타	LGU				대전광역시 유성구 원내동 358	대전광역시 유성구청	042-611-2183	36.2949841	127.3206111	2016-07-28
장대동공영주차장	주차장1층 천장	대전광역시	유성구	교통시설	LGU				대전광역시 유성구 장대동 263-4	대전광역시 유성구청	042-611-2183	36.3599631	127.3318461	2016-07-28
공음면사무소	민원실	전라북도	고창군	관공서	LGU	Public Wifi FREE	2014-11-30	전라북도 고창군 공음면 공음길 35	전라북도 고창군 공음면 칠암리 556-2	공음면사무소	063-560-8242	35.377642	126.511352	2016-10-26
상하면사무소	민원실	전라북도	고창군	관공서	LGU	Public Wifi FREE	2014-11-30	전라북도 고창군 상하면 상하로 84-11	전라북도 고창군 상하면 하장리 890	상하면사무소	063-560-8271	35.444468	126.495177	2016-10-26
해리면사무소	민원실	전라북도	고창군	관공서	LGU	Public Wifi FREE	2014-11-30	전라북도 고창군 해리면 청해2길 38	전라북도 고창군 해리면 하련리 222	해리면사무소	063-560-8303	35.460752	126.539011	2016-10-26
성송면사무소	민원실	전라북도	고창군	관공서	LGU	Public Wifi FREE	2014-11-30	전라북도 고창군 성송면 대성로 770	전라북도 고창군 성송면 판정리 52-15	성송면사무소	063-560-8331	35.364193	126.646602	2016-10-26
대산면사무소	민원실	전라북도	고창군	관공서	LGU	Public Wifi FREE	2014-11-30	전라북도 고창군 대산면 대성로 273	전라북도 고창군 대산면 매산리 1072	대산면사무소	063-560-8361	35.341186	126.603476	2016-10-26
심원면사무소	민원실	전라북도	고창군	관공서	LGU	Public Wifi FREE	2014-11-30	전라북도 고창군 심원면 심원로 211	전라북도 고창군 심원면 월산리 779-1	심원면사무소	063-560-8392	35.524206	126.551041	2016-10-26
흥덕면사무소	민원실	전라북도	고창군	관공서	LGU	Public Wifi FREE	2014-11-30	전라북도 고창군 흥덕면 문화2길 27	전라북도 고창군 흥덕면 동사리 437-71	흥덕면사무소	063-560-8424	35.517696	126.703509	2016-10-26
성내면사무소	민원실	전라북도	고창군	관공서	LGU	Public Wifi FREE	2014-11-30	전라북도 고창군 성내면 시기2길 6	전라북도 고창군 성내면 양계리 472	성내면사무소	063-560-8452	35.537965	126.743416	2016-10-26
신림면사무소	민원실	전라북도	고창군	관공서	LGU	Public Wifi FREE	2014-11-30	전라북도 고창군 신림면 신림로 136	전라북도 고창군 신림면 무림리 309-10	신림면사무소	063-560-8481	35.489103	126.712361	2016-10-26
부안면사무소	민원실	전라북도	고창군	관공서	LGU	Public Wifi FREE	2014-11-30	전라북도 고창군 부안면 인촌로 1246	전라북도 고창군 부안면 중흥리 167	부안면사무소	063-560-8512	35.514252	126.674151	2016-10-26
흥덕공용버스터미널	대합실	전라북도	고창군	교통시설	LGU	Public Wifi FREE	2014-11-30	전라북도 고창군 흥덕면 선운대로 3722	전라북도 고창군 흥덕면 흥덕리 556	흥덕공용버스터미널	063-560-2338	35.5186	126.699385	2016-10-26
효성2동	민원실	인천광역시	계양구	관공서	LGU	Public Free		인천광역시 계양구 아나지로 162		인천광역시 계양구청	032-450-6781	37.525063	126.709802	2016-06-07
고창전통(상설)시장	시장 사거리 주변	전라북도	고창군	서민·복지시설	LGU	Public Wifi FREE	2013-11-30	전라북도 고창군 고창읍 동리로 62-11	전라북도 고창군 고창읍 읍내리 367	고창전통(상설)시장	063-560-2338	35.432551	126.698597	2016-10-26
여성회관	1층 로비	전라북도	고창군	서민·복지시설	LGU	Public Wifi FREE	2014-11-30	전라북도 고창군 고창읍 월곡공원1길 36	전라북도 고창군 고창읍 월곡리 619	여성회관	063-560-2338	35.438084	126.712789	2016-10-26
고창군청소년수련관	1층 로비	전라북도	고창군	지역문화시설	LGU	Public Wifi FREE	2013-11-30	전라북도 고창군 고창읍 운동장길 36	전라북도 고창군 고창읍 월암리 316	고창군청소년수련관	063-560-2338	35.432568	126.724618	2016-10-26
청소년문화센터	1층 로비	전라북도	고창군	서민·복지시설	LGU	Public Wifi FREE	2014-11-30	전라북도 고창군 고창읍 중앙로 292	전라북도 고창군 고창읍 교촌리 55-2	청소년문화센터	063-560-2338	35.435371	126.706893	2016-10-26
흥덕청소년문화의집	"1,2층"	전라북도	고창군	서민·복지시설	LGU	Public Wifi FREE	2013-11-30	전라북도 고창군 흥덕면 선운대로 3774	전라북도 고창군 흥덕면 흥덕리 63	흥덕청소년문화의집	063-560-2338	35.520793	126.703174	2016-10-26
성내청소년문화의집	1층 로비	전라북도	고창군	서민·복지시설	LGU	Public Wifi FREE	2013-11-30	전라북도 고창군 성내면 시기2길 18	전라북도 고창군 성내면 양계리 464	성내청소년문화의집	063-560-2338	35.538574	126.74231	2016-10-26
계양구청	1층민원여권과 부동산관리과 민원실	인천광역시	계양구	관공서	LGU	Public Free		인천광역시 계양구 계산새로 88		인천광역시 계양구청	032-450-6781	37.537367	126.737744	2016-06-07
효성1동	민원실	인천광역시	계양구	관공서	LGU	Public Free		인천광역시 계양구 봉오대로569번길 22		인천광역시 계양구청	032-450-6781	37.532479	126.712108	2016-06-07
계산1동	민원실	인천광역시	계양구	관공서	LGU	Public Free		인천광역시 계양구 어사대로 4		인천광역시 계양구청	032-450-6781	37.542922	126.724412	2016-06-07
완도읍사무소	본청 및 민원실	전라남도	완도군	관공서	LGU	Public Wify Free	15-Jan	전라남도 완도군 완도읍 개포로62번길 9		전라남도 완도군청	061-550-5200	34.31675	126.7455	2016-09-05
보건의료원	전체 공간	전라남도	완도군	관공서	LGU	Public Wify Free	15-Jan	전라남도 완도군 완도읍 농공단지길 34		전라남도 완도군청	061-550-5200	34.336213	126.73067	2016-09-05
완도여객터미널	여객선 내부 전체	전라남도	완도군	교통시설	LGU	Public Wify Free	15-Jan	전라남도 완도군 완도읍 장보고대로 351		전라남도 완도군청	061-550-5200	34.316281	126.761258	2016-09-05
완도군립도서관	도서관 전체	전라남도	완도군	관공서	LGU	Public Wify Free	15-Jan	전라남도 완도군 완도읍 주도길 3-1		전라남도 완도군청	061-550-5200	34.312814	126.754925	2016-09-05
계산2동	민원실	인천광역시	계양구	관공서	LGU	Public Free		인천광역시 계양구 주부토로 559		인천광역시 계양구청	032-450-6781	37.544172	126.728022	2016-06-07
계산3동	민원실	인천광역시	계양구	관공서	LGU	Public Free		인천광역시 계양구 계산로154번길 4		인천광역시 계양구청	032-450-6781	37.536701	126.729022	2016-06-07
작전1동	민원실	인천광역시	계양구	관공서	LGU	Public Free		인천광역시 계양구 봉오대로 727		인천광역시 계양구청	032-450-6781	37.530757	126.729689	2016-06-07
작전2동	민원실	인천광역시	계양구	관공서	LGU	Public Free		인천광역시 계양구 봉오대로677번길 23		인천광역시 계양구청	032-450-6781	37.532896	126.723884	2016-06-07
작전서운동	민원실	인천광역시	계양구	관공서	LGU	Public Free		인천광역시 계양구 효서로 361		인천광역시 계양구청	032-450-6781	37.528035	126.736439	2016-06-07
계양2동	민원실	인천광역시	계양구	관공서	LGU	Public Free		인천광역시 계양구 장제로 853		인천광역시 계양구청	032-450-6781	37.525063	126.709802	2016-06-07
노틀담복지관	각층	인천광역시	계양구	서민·복지시설	LGU	Public Free		인천광역시 계양구 계양산로 35번길 12-37		인천광역시 계양구청	032-450-6781	37.545865	126.71664	2016-06-07
노틀담보호작업장	각층	인천광역시	계양구	서민·복지시설	LGU	Public Free		인천광역시 계양구 계양산로 35번길 12-37		인천광역시 계양구청	032-450-6781	37.545865	126.71664	2016-06-07
해피로드	각층	인천광역시	계양구	서민·복지시설	LGU	Public Free		"인천광역시 계양구 장제로 731, B01호"		인천광역시 계양구청	032-450-6781	37.533158	126.733561	2016-06-07
더불어사는집	각층	인천광역시	계양구	서민·복지시설	LGU	Public Free		인천광역시 계양구 봉오대로 512번길5		인천광역시 계양구청	032-450-6781	37.528967	126.705972	2016-06-07
계양여성회관	각층	인천광역시	계양구	서민·복지시설	LGU	Public Free		인천광역시 계양구 봉오대로628번길 10		인천광역시 계양구청	032-450-6781	37.529221	126.718064	2016-06-07
동양도서관	각층	인천광역시	계양구	서민·복지시설	LGU	Public Free		인천광역시 계양구 동양동 615-2		인천광역시 계양구청	032-450-6781	37.561858	126.757841	2016-06-07
계양등기소	민원실	인천광역시	계양구	기타	LGU	Public Free		인천광역시 계양구 계산동 1077-2		인천광역시 계양구청	032-450-6781	37.536326	126.736199	2016-06-07
화명역	승강장	부산광역시	북구	교통시설	LGU	Public WiFi	Sep-13	부산광역시 북구 금곡대로 311	부산광역시 북구 화명동 1458-9	부산광역시	051-888-4602	35.2363431	129.0138411	2015-09-24
장성중앙시장	중앙시장 내	강원도	태백시	기타	LGU	Public WiFi FREE	Nov-15	강원도 태백시 장성1길 190	강원도 태백시 장성동 170-107	태백시청	033-550-2025	37.09986	129.011175	2016-10-20
철암청소년장학센터	프로그램실 외	강원도	태백시	서민·복지시설	LGU	Public WiFi FREE	Nov-15	강원도 태백시 동태백로 558	강원도 태백시 철암동 341-25	태백시청	033-550-2025	37.121279	129.044054	2016-10-20
태백시청소년수련관	야영장 외	강원도	태백시	서민·복지시설	LGU	Public WiFi FREE	Nov-15	강원도 태백시 천제단길 148	강원도 태백시 소도동 331-3	태백시청	033-550-2025	37.121833	128.951719	2016-10-20
통리장	통리장터	강원도	태백시	기타	LGU	Public WiFi FREE	Nov-15	강원도 태백시 통리1길 39 일원	강원도 태백시 황연동 74-12	태백시청	033-550-2025	37.168676	129.0367	2016-10-20
황지자유시장	자유시장 내	강원도	태백시	기타	LGU	Public WiFi FREE	Nov-15	강원도 태백시 시장안1길 18-1	강원도 태백시 황지동 38-129	태백시청	033-550-2025	37.173451	128.993098	2016-10-20
태백시의회	민원실	강원도	태백시	관공서	LGU	Public WiFi FREE	Nov-15	강원도 태백시 태붐로 21	강원도 태백시 황지동 244-3	태백시청	033-550-2025	37.164333	128.986449	2016-10-20
여성교양학습회관	프로그램실 외	강원도	태백시	관공서	LGU	Public WiFi FREE	Nov-15	강원도 태백시 태백로 1239	강원도 태백시 황지동 123-5	태백시청	033-550-2025	37.148119	128.994345	2016-10-20
태백산국립공원	제1주차장 휴게실	강원도	태백시	관광	LGU	Public_WiFi Free 2.4G	Nov-15	강원도 태백시 천제단길 168	강원도 태백시 소도동 325	태백시청	033-550-2025	37.120849	128.95119	2016-10-20
고생대자연사박물관	"박물관 내,외부"	강원도	태백시	관광	LGU	Public_WiFi Free 2.4G	Nov-15	강원도 태백시 태백로 2249	강원도 태백시 동점동 295	태백시청	033-550-2025	37.09508	129.039513	2016-10-20
용연동굴	휴게실	강원도	태백시	관광	LGU	Public_WiFi Free 2.4G	Nov-15	강원도 태백시 태백로 283-29	강원도 태백시 화전동 산47-69	태백시청	033-550-2025	37.219148	128.941271	2016-10-20
태백고원자연휴양림	외부휴양시설	강원도	태백시	관광	LGU	Public_WiFi Free 2.4G	Nov-15	강원도 태백시 머리골길 153	강원도 태백시 철암동 산90-1	태백시청	033-550-2025	37.129465	129.068221	2016-10-20
한국청소년안전체험관	휴게공간	강원도	태백시	관광	LGU	Public_WiFi Free 2.4G	Nov-15	강원도 태백시 평화길 15	강원도 태백시 장성동 40	태백시청	033-550-2025	37.100751	129.023647	2016-10-20
태백문화예술회관	외부공간	강원도	태백시	지역문화시설	LGU	Public_WiFi Free 2.4G	Nov-15	강원도 태백시 고원로 203	강원도 태백시 황지동 49-225	태백시청	033-550-2025	37.172026	128.987953	2016-10-20
검룡소	주차장	강원도	태백시	관광	LGU	Public_WiFi Free 2.4G	Jul-16	강원도 태백시 창죽동 산1-1	강원도 태백시 창죽동 산1-1	태백시청	033-550-2025	37.231012	128.938483	2016-10-20
수질환경사업소	자연학습장	강원도	태백시	관공서	LGU	Public_WiFi Free 2.4G	Jul-16	강원도 태백시 사군드리길 103-38	강원도 태백시 구문소동 241	태백시청	033-550-2025	37.086959	129.036363	2016-10-20
삼수령	휴게공간	강원도	태백시	관광	LGU	Public_WiFi Free 2.4G	Jul-16	강원도 태백시 적각동 산61-1번지	강원도 태백시 적각동 산61-1번지	태백시청	033-550-2025	37.221169	128.986805	2016-10-20
연화산유원지	"주차장, 유아숲체험장"	강원도	태백시	관광	LGU	Public_WiFi Free 2.4G	Jul-16	강원도 태백시 백산동 산53	강원도 태백시 백산동 산53	태백시청	033-550-2025	37.148344	129.011471	2016-10-20
매봉산 바람의 언덕	"풍력발전기 4, 6호기 앞"	강원도	태백시	관광	LGU	Public_WiFi Free 2.4G	Jul-16	강원도 태백시 창죽동 9-384	강원도 태백시 창죽동 9-384	태백시청	033-550-2025	37.224797	128.965229	2016-10-20
철암탄광역사촌	외부공간	강원도	태백시	관광	LGU	Public_WiFi Free 2.4G	Jul-16	강원도 태백시 동태백로 406	강원도 태백시 철암동 403-59	태백시청	033-550-2025	37.114348	129.037166	2016-10-20
금곡청소년센터	로비	부산광역시	북구	서민복지시설	LGU	Public WiFi	Oct-12	부산광역시 북구 효열로 158(금곡동)	부산광역시 북구 금곡동 100-1	부산광역시	051-888-4602	35.2594941	129.0166681	2015-09-24
한국산업인력공단 부산지부	로비	부산광역시	북구	관공서	LGU	Public WiFi	Oct-12	부산광역시 북구 금곡대로441번길 26(금곡동)	부산광역시 북구 금곡동 1877	부산광역시	051-888-4602	35.2485011	129.0108511	2015-09-24
만덕종합사회복지관	로비	부산광역시	북구	서민복지시설	LGU	Public WiFi	Oct-12	부산광역시 북구 함박봉로140번길 102(만덕동)	부산광역시 북구 만덕2동 949-1	부산광역시	051-888-4602	35.2019111	129.0353841	2015-09-24
강화풍물시장	1층로비	인천광역시	강화군	기타	LGU	publicwififree	15-Dec	인천광역시 강화군 강화읍 중앙로 17-9		인천광역시 강화군청	032-930-3299	37.7422919	126.4921831	2015-10-15
강화군자원봉사센터	사무실내	인천광역시	강화군	서민·복지시설	LGU	publicwififree	15-Dec	인천광역시 강화군 강화읍 강화대로394 별관4층		인천광역시 강화군청	032-930-3299	37.7471724	126.4871795	2015-10-15
고인돌지역아동센터	센터내	인천광역시	강화군	서민·복지시설	LGU	publicwififree	15-Dec	인천광역시 강화군 하점면 강화대로 1089		인천광역시 강화군청	032-930-3299	37.7734345	126.4246731	2015-10-15
열매지역아동센터	센터내	인천광역시	강화군	서민·복지시설	LGU	publicwififree	15-Dec	인천광역시 강화군 강화읍 갑룡길 76-17		인천광역시 강화군청	032-930-3299	37.7439679	126.5013841	2015-10-15
교동면보건지소	1층로비	인천광역시	강화군	관공서	LGU	publicwififree	15-Dec	인천광역시 강화군 교동면 교동동로 485-13		인천광역시 강화군청	032-930-3299	37.7843866	126.2831036	2015-10-15
흥왕리보건진료소	진료실	인천광역시	강화군	관공서	LGU	publicwififree	15-Dec	인천광역시 강화군 화도면 해안남로1950		인천광역시 강화군청	032-930-3299	37.6077745	126.4147053	2015-10-15
삼선리보건진료소	진료실	인천광역시	강화군	관공서	LGU	publicwififree	15-Dec	인천광역시 강화군 교동면 교동북로222-1		인천광역시 강화군청	032-930-3299	37.7960582	126.2615682	2015-10-15
상용리보건진료소	진료실	인천광역시	강화군	관공서	LGU	publicwififree	15-Dec	인천광역시 강화군 교동면 교동동로208-3		인천광역시 강화군청	032-930-3299	37.7957982	126.3078313	2015-10-15
화도면사무소	민원실	인천광역시	강화군	관공서	LGU	publicwififree	15-Dec	인천광역시 강화군 화도면 마니산로 703-14		인천광역시 강화군청	032-930-3299	37.6322478	126.4203575	2015-10-15
강화읍주민자치센터	1층 안내실	인천광역시	강화군	관공서	LGU	publicwififree	15-Dec	인천광역시 강화군 강화읍 강화대로440번길10		인천광역시 강화군청	032-930-3299	37.7490618	126.4828782	2015-10-15
강화군보훈회관	1층로비	인천광역시	강화군	서민·복지시설	LGU	publicwififree	15-Dec	인천광역시 강화군 강화읍 강화대로373		인천광역시 강화군청	032-930-3299	37.7449077	126.4879742	2015-10-15
강화군센터드림스타트	사무실내	인천광역시	강화군	관공서	LGU	publicwififree	15-Dec	인천광역시 강화군 강화읍 북문길11-1		인천광역시 강화군청	032-930-3299	37.7489863	126.4836867	2015-10-15
장애인회관	1층로비	인천광역시	강화군	서민·복지시설	LGU	publicwififree	15-Dec	인천광역시 강화군 강화읍 강화대로371-1		인천광역시 강화군청	032-930-3299	37.7449075	126.4879747	2015-10-15
화정종합사회복지관	사무실	부산광역시	북구	서민복지시설	LGU	Public WiFi	Sep-13	부산광역시 북구 효열로 76-1	부산광역시 북구 금곡동 1108	부산광역시	051-888-4602	35.2525141	129.0148761	2015-09-24
화명종합사회복지관	사무실	부산광역시	북구	서민복지시설	LGU	Public WiFi	Sep-13	부산광역시 북구 금곡대로199번길 21	부산광역시 북구 화명동 2310	부산광역시	051-888-4602	35.2268391	129.0098891	2015-09-24
근로복지공단(부전)	민원실	부산광역시	부산진구	관공서	LGU	Public WiFi Free	Sep-12	부산광역시 부산진구 중앙대로 766	부산광역시 부산진구 부전1동  91-5	부산광역시 부산진구청	051-605-4171	35.1604814	129.0618249	2016-01-01
부산상공회의소	민원실	부산광역시	부산진구	관공서	LGU	Public WiFi Free	Sep-12	부산광역시 부산진구 황령대로 24	부산광역시 부산진구 범천1동 853-1	부산광역시 부산진구청	051-605-4171	35.1478869	129.0622681	2016-01-01
전포사회복지관	민원실	부산광역시	부산진구	서민·복지시설	LGU	Public WiFi Free	Sep-12	부산광역시 부산진구 전포대로 190번길 35	부산광역시 부산진구 전포동 343-5	부산광역시 부산진구청	051-605-4171	35.1536436	129.0675507	2016-01-01
부암역	역사내	부산광역시	부산진구	기타	LGU	Public WiFi Free	Sep-13	부산광역시 부산진구 가야대로 729	부산광역시 부산진구 부암1동 707	부산광역시 부산진구청	051-605-4171	35.1632228	129.0493116	2016-01-01
이신호뷰티건물	1층	부산광역시	부산진구	기타	LGU	Public WiFi Free	Sep-13	부산광역시 부산진구 서면로 52	부산광역시 부산진구 부전2동 242-20	부산광역시 부산진구청	051-605-4171	35.1552638	129.0580562	2016-01-01
양정청소년 수련관	1층	부산광역시	부산진구	서민·복지시설	LGU	Public WiFi Free	Sep-13	부산광역시 부산진구 동평로 405번길 85 (양정동)	부산광역시 부산진구 양정동 260-5	부산광역시 부산진구청	051-605-4171	35.1772787	129.0717449	2016-01-01
희연요양병원	1층	부산광역시	부산진구	기타	LGU	Public WiFi Free	Sep-14	부산광역시 부산진구 가야대로 414 (개금동)	부산광역시 부산진구 개금1동 496-18	부산광역시 부산진구청	051-605-4171	35.1519337	129.0177952	2016-01-01
노원문화의거리2	노원문화의거리_방범33	서울특별시	노원구	관광	LGU	Public WiFi@Seoul	Dec-12	서울특별시 노원구 노해로81길 12-41	서울특별시 노원구 상계동 328-7	서울특별시청	02-2133-2865	37.6557822	127.0641768	2016-06-15
노원문화의거리2	노원문화의거리_방범33	서울특별시	노원구	관광	LGU	Public WiFi@Seoul	Dec-12	서울특별시 노원구 노해로81길 12-41	서울특별시 노원구 상계동 328-7	서울특별시청	02-2133-2865	37.6557822	127.0641768	2016-06-15
당현천 주변	당현천 변 (CCTV망) - 1_인도교	서울특별시	노원구	편의시설	LGU	Public WiFi@Seoul	Dec-12	서울특별시 노원구 섬밭로 285	서울특별시 노원구 중계동 504-1	서울특별시청	02-2133-2865	37.6397262	127.0604174	2016-06-15
당현천 주변	당현천 변 (CCTV망) - 2_인도교	서울특별시	노원구	편의시설	LGU	Public WiFi@Seoul	Dec-12	서울특별시 노원구 섬밭로 285	서울특별시 노원구 중계동 504-1	서울특별시청	02-2133-2865	37.6397262	127.0604174	2016-06-15
당현천 주변	당현천 변 (CCTV망) - 3_당현빗물펌프장	서울특별시	노원구	편의시설	LGU	Public WiFi@Seoul	Dec-12		서울특별시 노원구 당현천 변	서울특별시청	02-2133-2865	37.6382739	127.0590732	2016-06-15
당현천 주변	당현천 변 (CCTV망) - 5_당현1교	서울특별시	노원구	편의시설	LGU	Public WiFi@Seoul	Dec-12	서울특별시 노원구 동일로210길 22	서울특별시 노원구 중계동 515-3	서울특별시청	02-2133-2865	37.6465232	127.0636353	2016-06-15
당현천 주변	당현천 변 (CCTV망) - 7_당현2교	서울특별시	노원구	편의시설	LGU	Public WiFi@Seoul	Dec-12	서울특별시 노원구 덕릉로 553	서울특별시 노원구 중계동 515	서울특별시청	02-2133-2865	37.6501333	127.0684205	2016-06-15
당현천 주변	당현천 변 (CCTV망) - 9_물넘이교	서울특별시	노원구	편의시설	LGU	Public WiFi@Seoul	Dec-12	서울특별시 노원구 노원로26길 119	서울특별시 노원구 상계동 180-3	서울특별시청	02-2133-2865	37.6551635	127.0719826	2016-06-15
당현천 주변	당현천 변 (CCTV망) - 10_물넘이교	서울특별시	노원구	편의시설	LGU	Public WiFi@Seoul	Dec-12	서울특별시 노원구 노원로26길 119	서울특별시 노원구 상계동 180-3	서울특별시청	02-2133-2865	37.6551635	127.0719826	2016-06-15
갈곡리 어린이공원	갈현로41길 3(갈현1동 436-51) 공원내	서울특별시	은평구	기타	LGU	Public WiFi@Seoul	Oct-13	서울특별시 은평구 갈현로41길 3	서울특별시 은평구 갈현동 439-3	서울특별시청	02-120	37.623847	126.916615	2016-05-23
갈마어린이공원	연서로21길 15(갈현2동 474-1) 공원내	서울특별시	은평구	기타	LGU	Public WiFi@Seoul	Dec-12	서울특별시 은평구 연서로21길 13-1	서울특별시 은평구 갈현동 475-15	서울특별시청	02-120	37.614644	126.915979	2016-05-23
구파발역앞광장	진관2로 15-25(진관동 533)	서울특별시	은평구	기타	LGU	Public WiFi@Seoul	Dec-12	서울특별시 은평구 진관2로 15-25	서울특별시 은평구 진관동 519-4	서울특별시청	02-120	37.6369099	126.9189536	2016-05-23
궁말어린이공원	서오릉로20길 13(갈현2동 327-21) 공원내	서울특별시	은평구	기타	LGU	Public WiFi@Seoul	Dec-13	서울특별시 은평구 서오릉로20길 13	서울특별시 은평구 갈현동 327-21	서울특별시청	02-120	37.616756	126.909001	2016-05-23
궁말어린이공원	서오릉로20길 15-1(갈현2동 327-21) 궁말어린이공원 CCTV	서울특별시	은평구	기타	LGU	Public WiFi@Seoul	Dec-12	서울특별시 은평구 서오릉로20길 15-1	서울특별시 은평구 갈현동 127-3	서울특별시청	02-120	37.6169769	126.9089537	2016-05-23
대림시장(새절역)	가좌로 213-4(응암3동 316-15) 야채가게앞 CCTV 좌측	서울특별시	은평구	기타	LGU	Public WiFi@Seoul	Dec-13	서울특별시 은평구 가좌로 213-4	서울특별시 은평구 응암동 316-9	서울특별시청	02-120	37.588715	126.917985	2016-05-23
대림시장(새절역)	응암로4길 25(응암3동 603-1) 축산생고기 정육점앞 CCTV 좌측	서울특별시	은평구	기타	LGU	Public WiFi@Seoul	Dec-13	서울특별시 은평구 응암로4길 25	서울특별시 은평구 응암동 609-1	서울특별시청	02-120	37.587201	126.917331	2016-05-23
대조시장	진흥로 150(녹번동 131-154) 앞 주정차 CCTV 좌측 (뿌리한의원 앞)	서울특별시	은평구	기타	LGU	Public WiFi@Seoul	Dec-13	서울특별시 은평구 진흥로 150	서울특별시 은평구 녹번동 131-160	서울특별시청	02-120	37.608754	126.926655	2016-05-23
박석고개공원	통일로89길 12-13(갈현1동 416-3) 박석고개공원내	서울특별시	은평구	기타	LGU	Public WiFi@Seoul	Dec-12	서울특별시 은평구 통일로89길 18-29	서울특별시 은평구 갈현동 416-3	서울특별시청	02-120	37.6252066	126.9184638	2016-05-23
분토골어린이공원	증산로11길 7-2(증산동 163-34) 공원내	서울특별시	은평구	기타	LGU	Public WiFi@Seoul	Dec-12	서울특별시 은평구 증산로11길 7-2	서울특별시 은평구 증산동 163-34	서울특별시청	02-120	37.5868712	126.9116324	2016-05-23
불광어린이공원	불광로9가길 1(불광1동 246-1) 불광어린이공원내	서울특별시	은평구	기타	LGU	Public WiFi@Seoul	Dec-12	서울특별시 은평구 불광로9가길 1	서울특별시 은평구 불광동 246-1	서울특별시청	02-120	37.6162998	126.9311687	2016-05-23
서갈현어린이공원	갈현로35길 8-1(갈현1동 434-38) 서갈현어린이공원내	서울특별시	은평구	기타	LGU	Public WiFi@Seoul	Dec-12	서울특별시 은평구 갈현로35길 8-1	서울특별시 은평구 갈현동 434-38	서울특별시청	02-120	37.621392	126.915706	2016-05-23
시루메공원	증산로5길 10-1(증산동 185-1) 시루메공원내	서울특별시	은평구	기타	LGU	Public WiFi@Seoul	Dec-14	서울특별시 은평구 증산로5길 10-1	서울특별시 은평구 증산동 172-13	서울특별시청	02-120	37.5830422	126.9070328	2016-05-23
양지시장	응암로 180(응암3동 598-26) 응암의원 양지시장	서울특별시	은평구	기타	LGU	Public WiFi@Seoul	Dec-14	서울특별시 은평구 응암로 180	서울특별시 은평구 응암동 602-45	서울특별시청	02-120	37.5880585	126.9170444	2016-05-23
역말사거리	연서로5길 5(역촌동 63-1) 역말사거리	서울특별시	은평구	관광	LGU	Public WiFi@Seoul	Dec-14	서울특별시 은평구 연서로5길 5	서울특별시 은평구 역촌동 63-42	서울특별시청	02-120	37.6040024	126.9151073	2016-05-23
역말어린이공원	갈현로14길 32(역촌동 47-1) 역말어린이공원내	서울특별시	은평구	기타	LGU	Public WiFi@Seoul	Dec-12	서울특별시 은평구 갈현로14길 28	서울특별시 은평구 역촌동 47-9	서울특별시청	02-120	37.6067923	126.913909	2016-05-23
역촌중앙시장	연서로17길 12(갈현2동 468-3)	서울특별시	은평구	기타	LGU	Public WiFi@Seoul	Dec-14	서울특별시 은평구 연서로17길 12	서울특별시 은평구 갈현동 467-3	서울특별시청	02-120	37.6129371	126.9161148	2016-05-23
역촌초등학교 정문	은평로3길 36(역촌동 66-44) GS25 역촌초등학교 정문	서울특별시	은평구	관광	LGU	Public WiFi@Seoul	Dec-14	서울특별시 은평구 은평로3길 36	서울특별시 은평구 역촌동 83-13	서울특별시청	02-120	37.6020178	126.9151131	2016-05-23
연서공원	연서로6길 12(역촌동 32-36) 연서공원	서울특별시	은평구	기타	LGU	Public WiFi@Seoul	Dec-14	서울특별시 은평구 연서로6길 12	서울특별시 은평구 역촌동 32-39	서울특별시청	02-120	37.6040913	126.9170289	2016-05-23
연서시장	연서로 246(불광1동 308-10 ) 연신내역 주변(1) (미성가구 앞)	서울특별시	은평구	기타	LGU	Public WiFi@Seoul	Dec-12	서울특별시 은평구 연서로 246	서울특별시 은평구 불광동 309-31	서울특별시청	02-120	37.6192458	126.9225935	2016-05-23
은평문화예술회관	"녹번로 16(녹번동 85-4) 1층, 2층"	서울특별시	은평구	지역문화시설	LGU	Public WiFi@Seoul	Dec-13	서울특별시 은평구 녹번로1길 1	서울특별시 은평구 녹번동 85-1	서울특별시청	02-120	37.603667	126.927113	2016-05-23
응암9구역어린이공원(가칭)	백련산로 10(응암동 670-22)	서울특별시	은평구	기타	LGU	Public WiFi@Seoul	Dec-12	서울특별시 은평구 백련산로 10	서울특별시 은평구 응암동 670-29	서울특별시청	02-120	37.5865254	126.9229643	2016-05-23
거리(농수산물할인마트 앞)	가좌로 333(신사2동 228-22)	서울특별시	은평구	기타	LGU	Public WiFi@Seoul	Dec-13	서울특별시 은평구 응암로22길 19	서울특별시 은평구 응암동 419-216	서울특별시청	02-120	37.593514	126.920289	2016-05-23
좌월어린이공원	갈현로25길 16(갈현동 513-1)	서울특별시	은평구	기타	LGU	Public WiFi@Seoul	Dec-12	서울특별시 은평구 갈현로25길 16	서울특별시 은평구 갈현동 515-15	서울특별시청	02-120	37.6174852	126.9132541	2016-05-23
증산종합시장1	"증산서길 63(증산동 209-17, 증산초등학교 정문앞 CCTV 좌측)(도노감성어린이집앞)"	서울특별시	은평구	기타	LGU	Public WiFi@Seoul	Dec-13	서울특별시 은평구 증산서길 63	서울특별시 은평구 증산동 209-17	서울특별시청	02-120	37.582439	126.905465	2016-05-23
참다래어린이공원	응암로25길 12(응암동 120-22)	서울특별시	은평구	기타	LGU	Public WiFi@Seoul	Dec-12	서울특별시 은평구 응암로25길 12	서울특별시 은평구 응암동 123-40	서울특별시청	02-120	37.5953073	126.9171449	2016-05-23
공성면 보건지소	대기실	경상북도	상주시	관공서	LGU		Dec-16	경상북도 상주시 공성면 공성중앙로 61	경상북도 상주시 공성면 옥산리 307-2	경상북도 상주시청	054-537-7082	36.2830974	128.0925686	2016-09-01
상주지역자활센터	대기실	경상북도	상주시	서민·복지시설	LGU		Dec-16	경상북도 상주시 중앙로 146	경상북도 상주시 남성동 50	경상북도 상주시청	054-537-7082	36.4155311	128.1540955	2016-09-01
상주 중앙시장	대기실	경상북도	상주시	편의시설	LGU		Dec-16	경상북도 상주시 풍물시장길 15	경상북도 상주시 남성동 85-10	경상북도 상주시청	054-537-7082	36.413401	128.1606886	2016-09-01
상주시 보건소	대기실	경상북도	상주시	관공서	LGU		Dec-16	경상북도 상주시 중앙로 111	경상북도 상주시 무양동 33-4	경상북도 상주시청	054-537-7082	36.4164612	128.1501593	2016-09-01
상주시 보건소	2층복도	경상북도	상주시	관공서	LGU		Dec-16	경상북도 상주시 중앙로 111	경상북도 상주시 무양동 33-4	경상북도 상주시청	054-537-7082	36.4164612	128.1501593	2016-09-01
청리면 보건지소	대기실	경상북도	상주시	관공서	LGU		Dec-16	경상북도 상주시 청리면 남상주로 1163	경상북도 상주시 청리면 월로리 661-1	경상북도 상주시청	054-537-7082	36.3397774	128.1319272	2016-09-01
함창읍 보건지소	대기실	경상북도	상주시	관공서	LGU		Dec-16	경상북도 상주시 함창읍 함창중앙로 130	경상북도 상주시 함창읍 구향리 203-1	경상북도 상주시청	054-537-7082	36.5691024	128.1784382	2016-09-01
화남면 보건지소	대기실	경상북도	상주시	관공서	LGU		Dec-16	경상북도 상주시 화남면 영남제일로 4627	경상북도 상주시 화남면 평온리 162-8	경상북도 상주시청	054-537-7082	36.4476906	127.9060238	2016-09-01
화북면 보건지소	대기실	경상북도	상주시	관공서	LGU		Dec-16	경상북도 상주시 화북면 문장로 1685	경상북도 상주시 화북면 용유리 350-20	경상북도 상주시청	054-537-7082	36.5593337	127.9204549	2016-09-01
동성동 주민센터	민원실	경상북도	상주시	관공서	LGU		Dec-16	경상북도 상주시 성동새싹길 42	경상북도 상주시 성동동 120-1	경상북도 상주시청	054-537-7082	36.4152715	128.1697657	2016-09-01
남원동 주민센터	민원실	경상북도	상주시	관공서	LGU		Dec-16	경상북도 상주시 중앙로 132	경상북도 상주시 낙양동 11-3	경상북도 상주시청	054-537-7082	36.4155304	128.152584	2016-09-01
북문동 주민센터	민원실	경상북도	상주시	관공서	LGU		Dec-16	경상북도 상주시 북천로 63	경상북도 상주시 만산동 677-30	경상북도 상주시청	054-537-7082	36.4289219	128.1578273	2016-09-01
계림동 주민센터	민원실	경상북도	상주시	관공서	LGU		Dec-16	경상북도 상주시 냉림1길 50	경상북도 상주시 냉림동 705-19	경상북도 상주시청	054-537-7082	36.422093	128.164288	2016-09-01
동문동 주민센터	민원실	경상북도	상주시	관공서	LGU		Dec-16	경상북도 상주시 복룡2길 23	경상북도 상주시 복룡동 288-3	경상북도 상주시청	054-537-7082	36.417306	128.1691306	2016-09-01
북구어르신행복마을요양시설	행복마을요양시설	울산광역시	북구	노인 복지시설	LGU	public wifi free	Oct-15	울산광역시 북구 동대11길 49	울산광역시 북구 동대11길 49	울산광역시 북구청	052-241-7253	35.6320583	129.354107	2016-09-09
내수보건지소	민원실	충청북도	청주시	관공서	LGU	Public WiFi@Cheongju	Dec-16	충청북도 청주시 청원구 내수읍 마산3길 49	충청북도 청주시 청원구 내수읍 마산리 149-2	충청북도 청주시청	043-201-1344	36.724111	127.535731	2015-09-25
오송보건지소	민원실	충청북도	청주시	관공서	LGU	Public WiFi@Cheongju	Dec-16	충청북도 청주시 흥덕구 오송읍 가로수로 174	충청북도 청주시 흥덕구 오송읍 오송리 203-2	충청북도 청주시청	043-201-1344	36.609654	127.324813	2015-09-25
옥산보건지소	민원실	충청북도	청주시	관공서	LGU	Public WiFi@Cheongju	Dec-16	충청북도 청주시 흥덕구 옥산면 옥산시내1길 45-9	충청북도 청주시 흥덕구 옥산면 가락리 737-7	충청북도 청주시청	043-201-1344	36.664884	127.376124	2015-09-25
북이보건지소	민원실	충청북도	청주시	관공서	LGU	Public WiFi@Cheongju	Dec-16	충청북도 청주시 청원구 북이면 신대석성로 10	충청북도 청주시 청원구 북이면 신대리 4-8	충청북도 청주시청	043-201-1344	36.738937	127.541643	2015-09-25
초량6동주민센터	민원대앞	부산광역시	동구청	관공서	LGU			부산광역시 동구 초량로 75		부산광역시	051-888-4602	35.120032	129.034488	2016-09-26
미원보건지소	민원실	충청북도	청주시	관공서	LGU	Public WiFi@Cheongju	Dec-16	충청북도 청주시 상당구 미원면 미원초정로 19-21	충청북도 청주시 상당구 미원면 미원리 550-2	충청북도 청주시청	043-201-1344	36.637155	127.656087	2015-09-25
가덕보건지소	민원실	충청북도	청주시	관공서	LGU	Public WiFi@Cheongju	Dec-16	충청북도 청주시 상당구 가덕면 보청대로 4650	충청북도 청주시 상당구 가덕면 인차리 319	충청북도 청주시청	043-201-1344	36.553195	127.549285	2015-09-25
현도보건지소	민원실	충청북도	청주시	관공서	LGU	Public WiFi@Cheongju	Dec-16	충청북도 청주시 서원구 현도면 선동1길 9	충청북도 청주시 서원구 현도면 선동리 499-3	충청북도 청주시청	043-201-1344	36.486422	127.424181	2015-09-25
청원군청소년수련관	복도 사무실 등	충청북도	청주시	서민·복지시설	LGU	Public WiFi@Cheongju	Dec-16	충청북도 청주시 상당구 문의면 대청호반로 721	충청북도 청주시 상당구 문의면 문산리 산6-1	충청북도 청주시청	043-201-1344	36.508694	127.493516	2015-09-25
행복의집 소망노인요양원	복도 사무실 등	충청북도	청주시	서민·복지시설	LGU	Public WiFi@Cheongju	Dec-16	충청북도 청주시 서원구 현도면 상삼길 80	충청북도 청주시 서원구 현도면 상삼리 360	충청북도 청주시청	043-201-1344	36.521227	127.405514	2015-09-25
혜능보육원	복도 사무실 등	충청북도	청주시	서민·복지시설	LGU	Public WiFi@Cheongju	Dec-16	충청북도 청주시 흥덕구 옥산면 환희2길 68-14	충청북도 청주시 흥덕구 옥산면 환희리 29-8	충청북도 청주시청	043-201-1344	36.679545	127.359747	2015-09-25
군민복지회관	1층 로비	전라북도	고창군	복지시설	LGU	Public Wifi FREE	Nov-14	전라북도 고창군 고창읍  월곡14길 19	전라북도 고창군 고창읍 월곡리 620	군민복지회관	063-560-8087	35.437477	126.713096	2015-09-11
청주가경노인복지관	복도 사무실 등	충청북도	청주시	서민·복지시설	LGU	Public WiFi@Cheongju	Dec-16	충청북도 청주시 흥덕구 서부로 1225	충청북도 청주시 흥덕구 가경동 산90 노인문화관	충청북도 청주시청	043-201-1344	36.611714	127.436731	2016-09-23
충북노인종합복지관	복도 사무실 등	충청북도	청주시	서민·복지시설	LGU	Public WiFi@Cheongju	Dec-16	충청북도 청주시 서원구 흥덕로 42	충청북도 청주시 서원구 사직동 554-58 노인종합복지회관	충청북도 청주시청	043-201-1344	36.639685	127.474013	2016-09-23
늘푸른아동원	복도 사무실 등	충청북도	청주시	서민·복지시설	LGU	Public WiFi@Cheongju	Dec-16	충청북도 청주시 흥덕구 서부로 837-102	충청북도 청주시 흥덕구 현암동 47-13	충청북도 청주시청	043-201-1344	36.599588	127.397842	2016-09-23
충북장애인 단체연합회	복도 사무실 등	충청북도	청주시	서민·복지시설	LGU	Public WiFi@Cheongju	Dec-16	충청북도 청주시 서원구 흥덕로 48	충청북도 청주시 서원구 사직동 554-6 청주의료원	충청북도 청주시청	043-201-1344	36.640211	127.472912	2016-09-23
농소3동도서관	"1,2층 로비"	울산광역시	북구	공공기관	LGU	public wifi free	Dec-11	울산광역시 북구 아진1로 47	울산광역시 북구 천곡동 421-12	울산광역시 북구청	052-241-7253	35.6331107	129.335684	2016-09-09
자모원	복도 사무실 등	충청북도	청주시	서민·복지시설	LGU	Public WiFi@Cheongju	Dec-16	충청북도 청주시 청원구 오창읍 성산2길 140	충청북도 청주시 청원구 오창읍 성선리 421	충청북도 청주시청	043-201-1344	36.743409	127.412702	2016-09-23
염포양정도서관	"1,2층 로비"	울산광역시	북구	공공기관	LGU	public wifi free	Dec-11	울산광역시 북구 염포로 685-1	울산광역시 북구 염포동 348-3	울산광역시 북구청	052-241-7253	35.5318269	129.3939	2016-09-09
명촌문화센터	"1,2,3,4층"	울산광역시	북구	공공기관	LGU	public wifi free	Dec-11	울산광역시 북구 명촌12길 11	울산광역시 북구 명촌동 864-2	울산광역시 북구청	052-241-7253	35.5550257	129.35516	2016-09-09
중산문화센터	"1,2,3층"	울산광역시	북구	공공기관	LGU	public wifi free	Dec-11	울산광역시 북구 산업로 1643	울산광역시 북구 중산동 798-2	울산광역시 북구청	052-241-7253	35.6593765	129.33891	2016-09-09
메아리동산	"2층,3층"	울산광역시	북구	장애인복지시설	LGU	public wifi free	Dec-13	울산광역시 북구 갓안1길 8	울산광역시 북구 중산동 492-2	울산광역시 북구청	052-241-7253	35.6658853	129.340127	2016-09-09
북구종합사회복지관	노인복지회관	울산광역시	북구	노인 복지시설	LGU	public wifi free	Dec-13	울산광역시 북구 동대8길 40	울산광역시 북구 호계동 262-2	울산광역시 북구청	052-241-7253	35.6313066	129.353842	2016-09-09
어울림보호작업시설	4층	울산광역시	북구	장애인복지시설	LGU	public wifi free	Dec-13	울산광역시 북구 동대11길 49	울산광역시 북구 호계동 262-11	울산광역시 북구청	052-241-7253	35.6320583	129.354107	2016-09-09
천곡문화센터	"1,2,3층"	울산광역시	북구	공공기관	LGU	public wifi free	Sep-14	울산광역시 북구 천곡남로 121	울산광역시 북구 천곡동 266-2	울산광역시 북구청	052-241-7253	35.6389202	129.332078	2016-09-09
수정1동주민센터	민원대앞	부산광역시	동구청	관공서	LGU			부산광역시 동구 홍곡로 71		부산광역시	051-888-4602	35.125415	129.042275	2016-09-26
울산북구청 1층 민원실	1층 민원실	울산광역시	북구	공공기관	LGU	public wifi free	Dec-11	울산광역시 북구 산업로 1010	울산광역시 북구 연암동 1004-1	울산광역시 북구청	052-241-7253	35.5824555	129.361048	2016-09-09
울산북구청 2층 기자실	2층 기자실	울산광역시	북구	공공기관	LGU	public wifi free	Dec-11	울산광역시 북구 산업로 1010	울산광역시 북구 연암동 1004-1	울산광역시 북구청	052-241-7253	35.5824555	129.361048	2016-09-09
보건소 1층 민원실	1층 민원실	울산광역시	북구	공공기관	LGU	public wifi free	Dec-11	울산광역시 북구 산업로 1018	울산광역시 북구 연암동 1082	울산광역시 북구청	052-241-7253	35.5834914	129.360604	2016-09-09
북구문화예술회관	"1,2층 로비"	울산광역시	북구	공공기관	LGU	public wifi free	Dec-11	울산광역시 북구 산업로 1010	울산광역시 북구 연암동 1004-1	울산광역시 북구청	052-241-7253	35.5824555	129.361048	2016-09-09
오토밸리복지센터	"1,2층 로비"	울산광역시	북구	공공기관	LGU	public wifi free	Dec-11	울산광역시 북구 산업로 1020	울산광역시 북구 연암동 1121-2	울산광역시 북구청	052-241-7253	35.5842519	129.360417	2016-09-09
농소1동주민센터 1층 민원실	1층 민원실	울산광역시	북구	공공기관	LGU	public wifi free	Dec-11	울산광역시 북구 호계2길 10	울산광역시 북구 호계동 874-1	울산광역시 북구청	052-241-7253	35.6228029	129.356043	2016-09-09
농소2동주민센터 1층 민원실	1층 민원실	울산광역시	북구	공공기관	LGU	public wifi free	Dec-11	울산광역시 북구 찬샘1길 24	울산광역시 북구 신천동 203-2	울산광역시 북구청	052-241-7253	35.6383357	129.348253	2016-09-09
농소3동주민센터 1층 민원실	1층 민원실	울산광역시	북구	공공기관	LGU	public wifi free	Dec-11	울산광역시 북구 신답로 77	울산광역시 북구 상안동 380-8	울산광역시 북구청	052-241-7253	35.6286719	129.339693	2016-09-09
강동동주민센터 1층 민원실	1층 민원실	울산광역시	북구	공공기관	LGU	public wifi free	Dec-11	울산광역시 북구 정자7길 5	울산광역시 북구 정자동 165	울산광역시 북구청	052-241-7253	35.615547	129.448364	2016-09-09
효문동주민센터 1층 민원실	1층 민원실	울산광역시	북구	공공기관	LGU	public wifi free	Dec-11	울산광역시 북구 산업로 970	울산광역시 북구 연암동 966	울산광역시 북구청	052-241-7253	35.5777427	129.361064	2016-09-09
송정동주민센터 1층 민원실	1층 민원실	울산광역시	북구	공공기관	LGU	public wifi free	Dec-11	울산광역시 북구 산업로 1120	울산광역시 북구 화봉동 555	울산광역시 북구청	052-241-7253	35.5941799	129.374255	2016-09-09
양정동주민센터 1층 민원실	1층 민원실	울산광역시	북구	공공기관	LGU	public wifi free	Dec-11	울산광역시 북구 오치골3길 26	울산광역시 북구 양정동 488-3	울산광역시 북구청	052-241-7253	35.5482035	129.385479	2016-09-09
염포동주민센터 1층 민원실	1층 민원실	울산광역시	북구	공공기관	LGU	public wifi free	Dec-11	울산광역시 북구 중리11길 2	울산광역시 북구 염포동 508-23	울산광역시 북구청	052-241-7253	35.5268758	129.39911	2016-09-09
북구 국민체육센터	"1,2,3층 로비"	울산광역시	북구	공공기관	LGU	public wifi free	Dec-11	울산광역시 북구 호계로 416-31	울산광역시 북구 신천동 580-2	울산광역시 북구청	052-241-7253	35.6428892	129.346698	2016-09-09
북구 중앙도서관	"1,2,3층"	울산광역시	북구	공공기관	LGU	public wifi free	Dec-11	울산광역시 북구 두부곡1길 9	울산광역시 북구 연암동 378	울산광역시 북구청	052-241-7253	35.5845033	129.367815	2016-09-09
농소1동 도서관	"1,2층 로비"	울산광역시	북구	공공기관	LGU	public wifi free	Dec-11	울산광역시 북구 동대15길 27	울산광역시 북구 호계동 268-8	울산광역시 북구청	052-241-7253	35.6292041	129.354465	2016-09-09
기적의도서관	"1층, 지하"	울산광역시	북구	공공기관	LGU	public wifi free	Dec-11	울산광역시 북구 이화5길 29-13	울산광역시 북구 중산동 570-2	울산광역시 북구청	052-241-7253	35.6621612	129.336563	2016-09-09
고수면사무소	민원실	전라북도	고창군	관공서	LGU	Public Wifi FREE	Nov-14	전라북도 고창군 고수면 고인돌대로 1412	전라북도 고창군 고수면 봉산리 359-5	고수면사무소	063-560-8151	35.409887	126.678707	2015-09-11
아산면사무소	민원실	전라북도	고창군	관공서	LGU	Public Wifi FREE	Nov-14	전라북도 고창군 아산면 녹두로 786	전라북도 고창군 아산면 하갑리 190-2	아산면사무소	063-560-8181	35.439762	126.634935	2015-09-11
무장면사무소	민원실	전라북도	고창군	관공서	LGU	Public Wifi FREE	Nov-14	전라북도 고창군 무장면 녹두로 8	전라북도 고창군 무장면 성내리 75	무장면사무소	063-560-8212	35.419244	126.560852	2015-09-11
공음면사무소	민원실	전라북도	고창군	관공서	LGU	Public Wifi FREE	Nov-14	전라북도 고창군 공음면 공음길 35	전라북도 고창군 공음면 칠암리 556-2	공음면사무소	063-560-8242	35.377642	126.511352	2015-09-11
상하면사무소	민원실	전라북도	고창군	관공서	LGU	Public Wifi FREE	Nov-14	전라북도 고창군 상하면 상하로 84-11	전라북도 고창군 상하면 하장리 890	상하면사무소	063-560-8271	35.444468	126.495177	2015-09-11
해리면사무소	민원실	전라북도	고창군	관공서	LGU	Public Wifi FREE	Nov-14	전라북도 고창군 해리면 청해2길 38	전라북도 고창군 해리면 하련리 222	해리면사무소	063-560-8303	35.460752	126.539011	2015-09-11
성송면사무소	민원실	전라북도	고창군	관공서	LGU	Public Wifi FREE	Nov-14	전라북도 고창군 성송면 대성로 770	전라북도 고창군 성송면 판정리 52-15	성송면사무소	063-560-8331	35.364193	126.646602	2015-09-11
대산면사무소	민원실	전라북도	고창군	관공서	LGU	Public Wifi FREE	Nov-14	전라북도 고창군 대산면 대성로 273	전라북도 고창군 대산면 매산리 1072	대산면사무소	063-560-8361	35.341186	126.603476	2015-09-11
심원면사무소	민원실	전라북도	고창군	관공서	LGU	Public Wifi FREE	Nov-14	전라북도 고창군 심원면 심원로 211	전라북도 고창군 심원면 월산리 779-1	심원면사무소	063-560-8392	35.524206	126.551041	2015-09-11
흥덕면사무소	민원실	전라북도	고창군	관공서	LGU	Public Wifi FREE	Nov-14	전라북도 고창군 흥덕면 문화2길 27	전라북도 고창군 흥덕면 동사리 437-71	흥덕면사무소	063-560-8424	35.517696	126.703509	2015-09-11
성내면사무소	민원실	전라북도	고창군	관공서	LGU	Public Wifi FREE	Nov-14	전라북도 고창군 성내면 시기2길 6	전라북도 고창군 성내면 양계리 472	성내면사무소	063-560-8452	35.537965	126.743416	2015-09-11
신림면사무소	민원실	전라북도	고창군	관공서	LGU	Public Wifi FREE	Nov-14	전라북도 고창군 신림면 신림로 136	전라북도 고창군 신림면 무림리 309-10	신림면사무소	063-560-8481	35.489103	126.712361	2015-09-11
부안면사무소	민원실	전라북도	고창군	관공서	LGU	Public Wifi FREE	Nov-14	전라북도 고창군 부안면 인촌로 1246	전라북도 고창군 부안면 중흥리 167	부안면사무소	063-560-8512	35.514252	126.674151	2015-09-11
흥덕공용버스터미널	대합실	전라북도	고창군	교통시설	LGU	Public Wifi FREE	Nov-14	전라북도 고창군 흥덕면 선운대로 3722	전라북도 고창군 흥덕면 흥덕리 556	흥덕공용버스터미널	063-560-2338	35.5186	126.699385	2015-09-11
고창전통(상설)시장	시장 사거리 주변	전라북도	고창군	서민복지시설	LGU	Public Wifi FREE	Nov-13	전라북도 고창군 고창읍 동리로 62-11	전라북도 고창군 고창읍 읍내리 367	고창전통(상설)시장	063-560-2338	35.432551	126.698597	2015-09-11
여성회관	1층 로비	전라북도	고창군	복지시설	LGU	Public Wifi FREE	Nov-14	전라북도 고창군 고창읍 월곡공원1길 36	전라북도 고창군 고창읍 월곡리 619	여성회관	063-560-2338	35.438084	126.712789	2015-09-11
고창군청소년수련관	1층 로비	전라북도	고창군	지역문화시설	LGU	Public Wifi FREE	Nov-13	전라북도 고창군 고창읍 운동장길 36	전라북도 고창군 고창읍 월암리 316	고창군청소년수련관	063-560-2338	35.432568	126.724618	2015-09-11
청소년문화센터	1층 로비	전라북도	고창군	복지시설	LGU	Public Wifi FREE	Nov-14	전라북도 고창군 고창읍 중앙로 292	전라북도 고창군 고창읍 교촌리 55-2	청소년문화센터	063-560-2338	35.435371	126.706893	2015-09-11
흥덕청소년문화의집	"1,2층"	전라북도	고창군	복지시설	LGU	Public Wifi FREE	Nov-13	전라북도 고창군 흥덕면 선운대로 3774	전라북도 고창군 흥덕면 흥덕리 63	흥덕청소년문화의집	063-560-2338	35.520793	126.703174	2015-09-11
성내청소년문화의집	1층 로비	전라북도	고창군	복지시설	LGU	Public Wifi FREE	Nov-13	전라북도 고창군 성내면 시기2길 18	전라북도 고창군 성내면 양계리 464	성내청소년문화의집	063-560-2338	35.538574	126.74231	2015-09-11
선운산유스호스텔	"1,2,3층"	전라북도	고창군	관광	LGU	Public Wifi FREE	Nov-13	전라북도 고창군 아산면 선운사로 158-36	전라북도 고창군 아산면 삼인리 334	선운산유스호스텔	063-560-2338	35.503203	126.583037	2015-09-11
보건소	지하1층 ~ 지상3층	경기도	군포시	관공서	LGU	Public WiFi Free	201512	경기도 군포시 군포로 221(부곡동)	경기도 군포시 부곡동 770-1번지	경기도 군포시청	031-390-0301	37.33300952	126.9256573	2016-08-01
시청	"민원봉사실, 1~5층 복도"	경기도	군포시	관공서	LGU	Public WiFi Free	201512	경기도 군포시 청백리길 6(금정동)	경기도 군포시 금정동 844번지	경기도 군포시청	031-390-0301	37.36149474	126.9349577	2016-08-01
청소년수련관	지하1층 ~ 지상4층	경기도	군포시	서민복지시설	LGU	Public WiFi Free	201512	경기도 군포시 산본로 322(금정동)	경기도 군포시 금정동 847-3번지	경기도 군포시청	031-390-0301	37.35978263	126.9346702	2016-08-01
보건소	지하1층 ~ 지상3층	경기도	군포시	관공서	LGU	Public WiFi Free	201412	경기도 군포시 군포로 221(부곡동)	경기도 군포시 부곡동 770-1번지	경기도 군포시청	031-390-0301	37.33300952	126.9256573	2016-08-01
시청	"민원봉사실, 1~5층 복도"	경기도	군포시	관공서	LGU	Public WiFi Free	201212	경기도 군포시 청백리길 6(금정동)	경기도 군포시 금정동 844번지	경기도 군포시청	031-390-0301	37.36149474	126.9349577	2016-08-01
청소년수련관	지하1층 ~ 지상4층	경기도	군포시	서민복지시설	LGU	Public WiFi Free	201412	경기도 군포시 산본로 322(금정동)	경기도 군포시 금정동 847-3번지	경기도 군포시청	031-390-0301	37.35978263	126.9346702	2016-08-01
의왕시 청계종합사회 복지관	4층~5층	경기도	의왕시	서민·복지시설	LGU	Public WiFi Free		경기도 의왕시 덕장로 19	경기도 의왕시 청계동 983	경기도 의왕시청	031-345-2301	37.39122341	126.9949998	2016-05-31
의왕시 여성회관	1층~3층	경기도	의왕시	서민·복지시설	LGU	Public WiFi Free		경기도 의왕시 오전로 122	경기도 의왕시 오전동 852	경기도 의왕시청	031-345-2301	37.35491868	126.9753981	2016-05-31
의왕시 희망나래 장애인복지관	1층~4층	경기도	의왕시	서민·복지시설	LGU	Public WiFi Free		경기도 의왕시 오전로 27	경기도 의왕시 왕곡동 590-1	경기도 의왕시청	031-345-2301	37.34839659	126.9815288	2016-05-31
청소년문화의집	사무실	전라남도	여수시	복지시설	LGU		Oct-13	전라남도 여수시 미평동 593-3번지	전라남도 여수시 미평동 593-3번지	전라남도 여수시청	061-659-5531	34.76325	127.7071	2015-08-31
청소년수련관	사무실	전라남도	여수시	복지시설	LGU		Oct-13	전라남도 여수시 학동 65번지	전라남도 여수시 학동 65번지	전라남도 여수시청	061-659-5531	34.76424	127.6587	2015-08-31
북부정류장	쉼터공원	대구광역시	서구	교통시설	LGU	public Wifi		대구광역시 서구 서대구로295	대구광역시 서구 비산동 1856-3	대구광역시 서구청	053-663-2473	35.885286	128.5551351	2016-09-10
보건복지회	사무실	대구광역시	서구	서민·복지시설	LGU	public Wifi		대구광역시 서구 국채보상로46길16	대구광역시 서구 평리동 1368-1	대구광역시 서구청	053-663-2473	35.8690199	128.5558268	2016-09-10
내당역	역사	대구광역시	서구	교통시설	LGU	public Wifi		대구광역시 서구 달구벌대로1829	대구광역시 서구 내당동 63-1	대구광역시 서구청	053-663-2473	35.8605651	128.5647416	2016-09-10
비산5동	민원실	대구광역시	서구	관공서	LGU	public Wifi		대구광역시 서구 팔달로170	대구광역시 서구 비산동 1041-3	대구광역시 서구청	053-663-2473	35.8885791	128.5683889	2016-09-10
대구의료원	민원실	대구광역시	서구	서민·복지시설	LGU	public Wifi		대구광역시 서구 평리로157	대구광역시 서구 중리동 1162	대구광역시 서구청	053-663-2473	35.85964	128.540587	2016-09-10
녹색미래과학관	로비	경상북도	김천시	관공서	LGU	Public-wi-fi	Jan-15	경상북도 김천시 혁신로31(율곡동)		Lgu+	054-420-6100	36.72822	128.1151	2016-10-12
동백원	사무실	전라남도	여수시	복지시설	LGU		Oct-14	전라남도 여수시 소라면 화양로 1953	전라남도 여수시 소라면 화양로 1953	전라남도 여수시청	061-659-5531	34.7535	127.627	2015-08-31
장애인종합복지관	사무실	전라남도	여수시	복지시설	LGU		Oct-14	전라남도 여수시 만성로 173	전라남도 여수시 만성로 173	전라남도 여수시청	061-659-5531	34.74288	127.7427	2015-08-31
여수시노인복지관	사무실	전라남도	여수시	복지시설	LGU		Oct-14	전라남도 여수시 학동서4길 58-26	전라남도 여수시 학동서4길 58-26	전라남도 여수시청	061-659-5531	34.76396	127.6587	2015-08-31
안성시장	시장통로	경기도	안성시	서민복지시설	LGU	Public WiFi FREE	201512	경기도 안성시 시장길 37	경기도 안성시 서인동 13-1번지	LGU+	1544-0010	37.00674521	127.2707879	2016-08-31
안성시청	민원실	경기도	안성시	관공서	LGU	Public WiFi FREE	190001	경기도 안성시 시청길 25	경기도 안성시 봉산동 31-3번지	LGU+	1544-0010	37.00771541	127.2799257	2016-08-31
농소면	사무실내	경상북도	김천시	관공서	LGU	Public-wi-fi	Jan-14	경상북도 김천시 농소면 농남로 42		Lgu+	054-420-6100	36.105797	128.172746	2016-10-12
중앙시장(안성)	시장통로	경기도	안성시	서민복지시설	LGU	Public WiFi FREE	201512	경기도 안성시 장기로45번길 30	경기도 안성시 서인동 81번지	LGU+	1544-0010	37.00657851	127.2687874	2016-08-31
노원문화의거리2	노원문화의거리_방범33	서울특별시	노원구	관광	LGU	Public WiFi@Seoul	Dec-12	서울특별시 노원구 노해로81길 12-41	서울특별시 노원구 상계동 328-7	서울특별시청	02-2133-2865	37.6557822	127.0641768	2016-06-15
노원문화의거리2	노원문화의거리_방범33	서울특별시	노원구	관광	LGU	Public WiFi@Seoul	Dec-12	서울특별시 노원구 노해로81길 12-41	서울특별시 노원구 상계동 328-7	서울특별시청	02-2133-2865	37.6557822	127.0641768	2016-06-15
당현천 주변	당현천 변 (CCTV망) - 1_인도교	서울특별시	노원구	편의시설	LGU	Public WiFi@Seoul	Dec-12	서울특별시 노원구 섬밭로 285	서울특별시 노원구 중계동 504-1	서울특별시청	02-2133-2865	37.6397262	127.0604174	2016-06-15
당현천 주변	당현천 변 (CCTV망) - 2_인도교	서울특별시	노원구	편의시설	LGU	Public WiFi@Seoul	Dec-12	서울특별시 노원구 섬밭로 285	서울특별시 노원구 중계동 504-1	서울특별시청	02-2133-2865	37.6397262	127.0604174	2016-06-15
당현천 주변	당현천 변 (CCTV망) - 3_당현빗물펌프장	서울특별시	노원구	편의시설	LGU	Public WiFi@Seoul	Dec-12		서울특별시 노원구 당현천 변	서울특별시청	02-2133-2865	37.6382739	127.0590732	2016-06-15
당현천 주변	당현천 변 (CCTV망) - 5_당현1교	서울특별시	노원구	편의시설	LGU	Public WiFi@Seoul	Dec-12	서울특별시 노원구 동일로210길 22	서울특별시 노원구 중계동 515-3	서울특별시청	02-2133-2865	37.6465232	127.0636353	2016-06-15
당현천 주변	당현천 변 (CCTV망) - 7_당현2교	서울특별시	노원구	편의시설	LGU	Public WiFi@Seoul	Dec-12	서울특별시 노원구 덕릉로 553	서울특별시 노원구 중계동 515	서울특별시청	02-2133-2865	37.6501333	127.0684205	2016-06-15
당현천 주변	당현천 변 (CCTV망) - 9_물넘이교	서울특별시	노원구	편의시설	LGU	Public WiFi@Seoul	Dec-12	서울특별시 노원구 노원로26길 119	서울특별시 노원구 상계동 180-3	서울특별시청	02-2133-2865	37.6551635	127.0719826	2016-06-15
당현천 주변	당현천 변 (CCTV망) - 10_물넘이교	서울특별시	노원구	편의시설	LGU	Public WiFi@Seoul	Dec-12	서울특별시 노원구 노원로26길 119	서울특별시 노원구 상계동 180-3	서울특별시청	02-2133-2865	37.6551635	127.0719826	2016-06-15
금란복지원	1층 로비	경기도	안성시	서민복지시설	LGU	Public WiFi FREE	201512	경기도 안성시 보개면 절가리길 73	경기도 안성시 보개면 적가리 346-1번지	LGU+	1544-0010	37.05210281	127.3017615	2016-08-31
노인복지회관(안성)	각층 로비	경기도	안성시	서민복지시설	LGU	Public WiFi FREE	201512	경기도 안성시 장기로 109	경기도 안성시 낙원동 68-24번지	LGU+	1544-0010	37.00427564	127.2750373	2016-08-31
성요셉의집	1층 로비	경기도	안성시	서민복지시설	LGU	Public WiFi FREE	201512	경기도 안성시 원곡면 새터길 74	경기도 안성시 원곡면 내가천리 117번지	LGU+	1544-0010	37.0440752	127.1224168	2016-08-31
안성 차량등록실	민원실	경기도	안성시	관공서	LGU	Public WiFi FREE	201512	경기도 안성시 금광면 금광오산로 228	경기도 안성시 금광면 내우리 20-9번지	LGU+	1544-0010	36.99705349	127.3170374	2016-08-31
함양장애인복지센터	1층로비	경상남도	함양군	서민·복지시설	LGU	Public WiFi Free				경상남도 함양군청	055-960-5116	35.511625	127.728083	2015-09-21
함양장애인복지센터	3층사무실앞	경상남도	함양군	서민·복지시설	LGU	Public WiFi Free				경상남도 함양군청	055-960-5116	35.511625	127.728083	2015-09-21
정읍시보건소	로비	전라북도	정읍시	기타	LGU	Public WiFi Free	Nov-10	전라북도 정읍시 수성1로 61	전라북도 정읍시 수성동 958-2	전라북도 정읍시청	063-539-5424	35.5779821	126.8545485	2016-08-31
샘골보건지소	로비	전라북도	정읍시	기타	LGU	Public WiFi Free	Dec-14	전라북도 정읍시 상동중앙로 16	전라북도 정읍시 상동 274-9	전라북도 정읍시청	063-539-5424	35.5577875	126.8663636	2016-08-31
시설관리사업소	로비	전라북도	정읍시	기타	LGU	Public WiFi Free	Dec-14	전라북도 정읍시 용흥1길 78-6	전라북도 정읍시 상평동 산19-6	전라북도 정읍시청	063-539-5424	35.5616627	126.8389783	2016-08-31
신태인읍사무소	민원실	전라북도	정읍시	기타	LGU	Public WiFi Free	Dec-14	전라북도 정읍시 신태인읍 중앙로 14	전라북도 정읍시 신태인읍 신태인리 140-6	전라북도 정읍시청	063-539-5424	35.6881682	126.8866572	2016-08-31
북면사무소	민원실	전라북도	정읍시	기타	LGU	Public WiFi Free	Dec-14	전라북도 정읍시 북면 정읍북로 570	전라북도 정읍시 북면 한교리 67-24	전라북도 정읍시청	063-539-5424	35.609242	126.892225	2016-08-31
입암면사무소	민원실	전라북도	정읍시	기타	LGU	Public WiFi Free	Dec-14	전라북도 정읍시 입암면 정읍남로 489	전라북도 정읍시 입암면 천원리 84	전라북도 정읍시청	063-539-5424	35.503753	126.793209	2016-08-31
소성면사무소	민원실	전라북도	정읍시	기타	LGU	Public WiFi Free	Dec-14	전라북도 정읍시 소성상평로 19	전라북도 정읍시 소성면 등계리 921-2	전라북도 정읍시청	063-539-5424	35.55683	126.783209	2016-08-31
고부면사무소	민원실	전라북도	정읍시	기타	LGU	Public WiFi Free	Dec-14	전라북도 정읍시 고부면 영주로 542-12	전라북도 정읍시 고부면 고부리 72-1	전라북도 정읍시청	063-539-5424	35.618545	126.771708	2016-08-31
영원면사무소	민원실	전라북도	정읍시	기타	LGU	Public WiFi Free	Dec-14	전라북도 정읍시 영원면 영원로 1082	전라북도 정읍시 영원면 은선리 182-4	전라북도 정읍시청	063-539-5424	35.655096	126.785317	2016-08-31
덕천면사무소	민원실	전라북도	정읍시	기타	LGU	Public WiFi Free	Dec-14	전라북도 정읍시 덕천면 황토현로 848	전라북도 정읍시 덕천면 우덕리 502-6	전라북도 정읍시청	063-539-5424	35.618602	126.842591	2016-08-31
이평면사무소	민원실	전라북도	정읍시	기타	LGU	Public WiFi Free	Dec-14	전라북도 정읍시 이평면 황토현로 293	전라북도 정읍시 이평면 두지리 192-1	전라북도 정읍시청	063-539-5424	35.664929	126.838201	2016-08-31
정우면사무소	민원실	전라북도	정읍시	기타	LGU	Public WiFi Free	Dec-14	전라북도 정읍시 정우면 정신로 609	전라북도 정읍시 정우면 초강리 39-3	전라북도 정읍시청	063-539-5424	35.644793	126.87592	2016-08-31
태인면사무소	민원실	전라북도	정읍시	기타	LGU	Public WiFi Free	Dec-14	전라북도 정읍시 태인면 정읍북로 1193	전라북도 정읍시 태인면 태창리 425	전라북도 정읍시청	063-539-5424	35.650655	126.932526	2016-08-31
감곡면사무소	민원실	전라북도	정읍시	기타	LGU	Public WiFi Free	Dec-14	전라북도 정읍시 감곡면 원삼1길 37	전라북도 정읍시 감곡면 방교리 613	전라북도 정읍시청	063-539-5424	35.714869	126.928496	2016-08-31
옹동면사무소	민원실	전라북도	정읍시	기타	LGU	Public WiFi Free	Dec-14	전라북도 정읍시 옹동면 옹지동촌로 208	전라북도 정읍시 옹동면 칠석리 171-14	전라북도 정읍시청	063-539-5424	35.64349	126.974549	2016-08-31
칠보면사무소	민원실	전라북도	정읍시	기타	LGU	Public WiFi Free	Dec-14	전라북도 정읍시 칠보면 칠보중앙로 68	전라북도 정읍시 칠보면 시산리 587-3	전라북도 정읍시청	063-539-5424	35.602578	126.993549	2016-08-31
산내면사무소	민원실	전라북도	정읍시	기타	LGU	Public WiFi Free	Dec-14	전라북도 정읍시 산내면 능교3길 14-6	전라북도 정읍시 산내면 능교리 480-1	전라북도 정읍시청	063-539-5424	35.568277	127.030241	2016-08-31
산외면사무소	민원실	전라북도	정읍시	기타	LGU	Public WiFi Free	Dec-14	전라북도 정읍시 산외면 산외로 462-1	전라북도 정읍시 산외면 평사리 442	전라북도 정읍시청	063-539-5424	35.62141	127.042099	2016-08-31
논산화지시장	시장내	충청남도	논산시	기타	LGU	Public WiFi Free	Jan-14	충청남도 논산시 대화로70번길 15	충청남도 논산시 화지동 46	충청남도 논산시	041-746-5252	36.2070306	127.0845777	2016-09-30
논산중앙시장	시장내	충청남도	논산시	기타	LGU	Public WiFi Free	Jan-14	충청남도 논산시 대화로 78	충청남도 논산시 대교동 321-56	충청남도 논산시	041-746-5252	36.2084439	127.0850683	2016-09-30
강경대흥시장	시장내	충청남도	논산시	기타	LGU	Public WiFi Free	Jan-14	충청남도 논산시 강경읍 계백로105번길 8-4	충청남도 논산시 강경읍 대흥리 48-32	충청남도 논산시	041-746-5252	36.1555249	127.0129737	2016-09-30
연무안심시장	시장내	충청남도	논산시	기타	LGU	Public WiFi Free	Jan-14	충청남도 논산시 연무읍 연무로178번길 9	충청남도 논산시 연무읍 안심리 14-2	충청남도 논산시	041-746-5252	36.1300377	127.0982666	2016-09-30
금곡청소년센터	로비	부산광역시	북구	서민복지시설	LGU	Public WiFi	12-Oct	부산광역시 북구 효열로 158(금곡동)	부산광역시 북구 금곡동 100-1	부산광역시청	051-888-4602	35.2594941	129.0166681	2016-03-25
한국산업인력공단 부산지부	로비	부산광역시	북구	관공서	LGU	Public WiFi	12-Oct	부산광역시 북구 금곡대로441번길 26(금곡동)	부산광역시 북구 금곡동 1877	부산광역시청	051-888-4602	35.2485011	129.0108511	2016-03-25
만덕종합사회복지관	로비	부산광역시	북구	서민복지시설	LGU	Public WiFi	12-Oct	부산광역시 북구 함박봉로140번길 102(만덕동)	부산광역시 북구 만덕2동 949-1	부산광역시청	051-888-4602	35.2019111	129.0353841	2016-03-25
덕천2동 주민센터	민원실	부산광역시	북구	관공서	LGU	Public WiFi	12-Oct	부산광역시 북구 금곡대로로20번길 60 (덕천동)	부산광역시 북구 덕천2동 346-2	부산광역시청	051-888-4602	35.124468	129.002873	2016-03-25
화정종합사회복지관	사무실	부산광역시	북구	서민복지시설	LGU	Public WiFi	13-Oct	부산광역시 북구 효열로 76-1	부산광역시 북구 금곡동 1108	부산광역시청	051-888-4602	35.2525141	129.0148761	2016-03-25
화명종합사회복지관	사무실	부산광역시	북구	서민복지시설	LGU	Public WiFi	13-Oct	부산광역시 북구 금곡대로199번길 21	부산광역시 북구 화명동 2310	부산광역시청	051-888-4602	35.2268391	129.0098891	2016-03-25
화명역	승강장	부산광역시	북구	교통시설	LGU	Public WiFi	13-Oct	부산광역시 북구 금곡대로 311	부산광역시 북구 화명동 1458-9	부산광역시청	051-888-4602	35.2363431	129.0138411	2016-03-25
구명역	승강장	부산광역시	북구	교통시설	LGU	Public WiFi	13-Oct	부산광역시 북구 백양대로 1094 (구포동)	부산광역시 북구 구포동 969-1	부산광역시청	051-888-4602	35.121009	128.595841	2016-03-25
숙등역	승강장	부산광역시	북구	교통시설	LGU	Public WiFi	13-Oct	부산광역시 북구 만덕대로 79 (덕천동)	부산광역시 북구 구포동 1157-1	부산광역시청	051-888-4602	35.124367	129.004796	2016-03-25
대구광역시청소년수련원	전체	대구광역시	달서구	복지시설	LGU		Dec-13	대구광역시 달서구 앞산순환로 180 (송현동)	대구광역시 달서구 송현동 702	대구광역시 달서구청	053-667-2471	35.8205034	128.5357544	2016-01-01
기후변화체험관	로비	부산광역시	북구	관공서	LGU	Public WiFi	15-Oct	부산광역시 북구 학사로 118 (화명동)	부산광역시 북구 화명동 2279	부산광역시청	051-888-4602	35.140073	129.003176	2016-03-25
덕천종합사회복지관	로비	부산광역시	북구	서민복지시설	LGU	Public WiFi	15-Oct	부산광역시 북구 덕천로 74 (덕천동)	부산광역시 북구 덕천동 808	부산광역시청	051-888-4602	35.123244	129.005726	2016-03-25
정화양로원	로비	부산광역시	북구	서민복지시설	LGU	Public WiFi	15-Oct	부산광역시 북구 양달로 55 (화명동)	부산광역시 북구 화명동 298	부산광역시청	051-888-4602	35.143874	129.010987	2016-03-25
청록만덕실버센터	로비	부산광역시	북구	서민복지시설	LGU	Public WiFi	15-Oct	부산광역시 북구 중리로 32 (만덕동)	부산광역시 북구 만덕동 376-35	부산광역시청	051-888-4602	35.124447	129.022672	2016-03-25
북구청소년상담복지센터	로비	부산광역시	북구	서민복지시설	LGU	Public WiFi	15-Oct	부산광역시 북구 덕천로 3 (구포동)	부산광역시 북구 구포동 610-1	부산광역시청	051-888-4602	35.122611	129.00193	2016-03-25
반딧불이지역아동센터	로비	부산광역시	북구	서민복지시설	LGU	Public WiFi	15-Oct	부산광역시 북구 금곡대로 616번길 10-23 (금곡동)	부산광역시 북구 금곡동 98-1	부산광역시청	051-888-4602	35.153861	129.005487	2016-03-25
낙동지역아동센터	로비	부산광역시	북구	서민복지시설	LGU	Public WiFi	15-Oct	부산광역시 북구 백양대로 1127 (구포동)	부산광역시 북구 구포동 718-25	부산광역시청	051-888-4602	35.121689	129.000578	2016-03-25
새구포종합상가시장	시장	부산광역시	북구	전통시장	LGU	Public WiFi	15-Oct	부산광역시 북구 의성로 96 (덕천동)	부산광역시 북구 덕천동 355-4	부산광역시청	051-888-4602	35.12437	129.003552	2016-03-25
자산동주민센터	민원대	경상북도	김천시	관공서	LGU	Public-wi-fi	Jan-15	경상북도 김천시 용암로 27		Lgu+	054-420-6100	36.122287	128.127802	2016-10-12
구포2동 주민센터	민원실	부산광역시	북구	관공서	LGU	Public WiFi	15-Oct	부산광역시 북구 낙동북로663번길 23 (구포동)	부산광역시 북구 구포1동 1060	부산광역시청	051-888-4602	35.2027181	128.9979931	2016-03-25
삼동재가노인지원서비스센터	로비	부산광역시	북구	서민복지시설	LGU	Public WiFi	15-Oct	부산광역시 북구 금곡대로 324번길 11 (화명동)	부산광역시 북구 화명동 1410-10	부산광역시청	051-888-4602	35.141417	129.005304	2016-03-25
실버벨노인종합복지관	로비	부산광역시	북구	서민복지시설	LGU	Public WiFi	15-Oct	부산광역시 북구 시랑로 114번길 45 (구포동)	부산광역시 북구 구포동 1255-2	부산광역시청	051-888-4602	35.11393	129.003122	2016-03-25
북구시니어클럽	로비	부산광역시	북구	서민복지시설	LGU	Public WiFi	15-Oct	부산광역시 북구 덕천로 83 (덕천동)	부산광역시 북구 덕천동 241-66	부산광역시청	051-888-4602	35.123378	129.004953	2016-03-25
1318미래세대지역아동센터	로비	부산광역시	북구	서민복지시설	LGU	Public WiFi	15-Oct	부산광역시 북구 만덕대로65번길 49 (덕천동)	부산광역시 북구 덕천동 321-13	부산광역시청	051-888-4602	35.125033	129.004041	2016-03-25
리틀스쿨지역아동센터	로비	부산광역시	북구	서민복지시설	LGU	Public WiFi	15-Oct	부산광역시 북구 산성로 76-8 (화명동)	부산광역시 북구 화명동 498-6	부산광역시청	051-888-4602	35.142839	129.011587	2016-03-25
화명1동주민센터	민원실	부산광역시	북구	관공서	LGU	Public WiFi	15-Oct	부산광역시 북구 금곡대로 274 (화명동)	부산광역시 북구 화명동 1230-3	부산광역시청	051-888-4602	35.13578	129.004999	2016-03-25
괴산군청민원과	민원실 및 문서실 앞 천장	충청북도	괴산군	관공서	LGU	Public WiFi Free	Oct-16	충청북도 괴산군 괴산읍 임꺽정로 90	충청북도 괴산군 괴산읍 서부리 125	충청북도 괴산군청	043-830-3772	36.8152338	127.7867464	2016-06-24
괴산군노인복지관	1층 및 2층 복도 천장	충청북도	괴산군	서민·복지시설	LGU	Public WiFi Free	Oct-16	충청북도 괴산군 괴산읍 동진천길 51	충청북도 괴산군 괴산읍 동부리 181	충청북도 괴산군청	043-830-3772	36.8081462	127.7973524	2016-06-24
신월보건지소	신월보건지소	충청북도	진천군	관공서	LGU	Public WiFi Free		충청북도 진천군 이월면 신정길 55	충청북도 진천군 이월면 신월리 336-33	충청북도 진천군청	043-539-3114	36.926952	127.466575	2016-10-10
용산보건지소	용산보건지소	충청북도	진천군	관공서	LGU	Public WiFi Free		충청북도 진천군 초평면 원댕이길 10	충청북도 진천군 초평면 용산리 245-2	충청북도 진천군청	043-539-3114	36.782481	127.536681	2016-10-10
진천군여성회관	진천군여성회관	충청북도	진천군	관공서	LGU	Public WiFi Free		충청북도 진천군 진천읍 남산길 27	충청북도 진천군 진천읍 읍내리 435-7	충청북도 진천군청	043-539-3114	36.856157	127.437783	2016-10-10
진천군장애인복지관	진천군장애인복지관	충청북도	진천군	관공서	LGU	Public WiFi Free		충청북도 진천군 진천읍 문화6안길 14-14	충청북도 진천군 진천읍 장관리 509-19	충청북도 진천군청	043-539-3114	36.863057	127.436219	2016-10-10
혁신도시출장소	혁신도시출장소	충청북도	진천군	관공서	LGU	Public WiFi Free		충청북도 진천군 덕산면 석장리 256	충청북도 진천군 덕산면 석장리 256	충청북도 진천군청	043-539-3114	36.899192	127.529006	2016-10-10
달구벌종합복지관	전체	대구광역시	달서구	복지시설	LGU		Dec-13	대구광역시 달서구 달구벌대로291길 100 (용산동)	대구광역시 달서구 용산동 230-17	대구광역시 달서구청	053-667-2471	35.8534459	128.5076362	2016-01-01
대구시각장애인복지관	전체	대구광역시	달서구	복지시설	LGU		Dec-13	대구광역시 달서구 달구벌대로291길 100 (용산동)	대구광역시 달서구 용산동 230-17	대구광역시 달서구청	053-667-2471	35.8534459	128.5076362	2016-01-01
대구청각언어장애인복지관	전체	대구광역시	달서구	복지시설	LGU		Dec-13	대구광역시 달서구 달구벌대로291길 100 (용산동)	대구광역시 달서구 용산동 230-17	대구광역시 달서구청	053-667-2471	35.8534459	128.5076362	2016-01-01
달서구노인종합복지관	전체	대구광역시	달서구	복지시설	LGU		Dec-13	대구광역시 달서구 학산로 140 (본동)	대구광역시 달서구 본동 804-2	대구광역시 달서구청	053-667-2471	35.8333848	128.524161	2016-01-01
달서구보건소	민원실	대구광역시	달서구	관공서	LGU		Dec-13	대구광역시 달서구 학산로 45 (월성동)	대구광역시 달서구 월성동 281	대구광역시 달서구청	053-667-2471	35.8297669	128.5151344	2016-01-01
괴산읍사무소	민원실 뒤편 및 사무실 뒤쪽 벽면	충청북도	괴산군	관공서	LGU	Public WiFi Free	Oct-16	충청북도 괴산군 괴산읍 읍내로13길 50	충청북도 괴산군 괴산읍 서부리 201-1	충청북도 괴산군청	043-830-3772	36.8117417	127.7908893	2016-06-24
청안면사무소	복지종합상담창구 위 천장	충청북도	괴산군	관공서	LGU	Public WiFi Free	Oct-16	충청북도 괴산군 청안면 청안읍내로 2길 7	충청북도 괴산군 청안면 읍내리 215-1	충청북도 괴산군청	043-830-3772	36.7719756	127.6396174	2016-06-24
사리면사무소	사무실 중앙 천장	충청북도	괴산군	관공서	LGU	Public WiFi Free	Oct-16	충청북도 괴산군 사리면 사리로 242	충청북도 괴산군 사리면 사담리 521	충청북도 괴산군청	043-830-3772	36.8169217	127.6487403	2016-06-24
칠성보건지소	내과진찰실 앞 천장	충청북도	괴산군	관공서	LGU	Public WiFi Free	Oct-16	충청북도 괴산군 칠성면 칠성로 2	충청북도 괴산군 칠성면 도정리 287-4	충청북도 괴산군청	043-830-3772	36.7873963	127.8625956	2016-06-24
청천보건지소	중앙 로비 천장	충청북도	괴산군	관공서	LGU	Public WiFi Free	Oct-16	충청북도 괴산군 청천면 금관로 473	충청북도 괴산군 청천면 청천리 51-10	충청북도 괴산군청	043-830-3772	36.658596	127.738876	2016-06-24
청안보건지소	접수실 앞 천장	충청북도	괴산군	관공서	LGU	Public WiFi Free	Oct-16	충청북도 괴산군 청안면 청안읍내로 21	충청북도 괴산군 청안면 읍내리 216-2	충청북도 괴산군청	043-830-3772	36.7717899	127.6398756	2016-06-24
사리보건지소	내과진찰실 앞 천장	충청북도	괴산군	관공서	LGU	Public WiFi Free	Oct-16	충청북도 괴산군 사리면 모래재로 355	충청북도 괴산군 사리면 방축리 278-9	충청북도 괴산군청	043-830-3772	36.8130866	127.651561	2016-06-24
칠성면사무소	"총무과, 민원과 앞 천장"	충청북도	괴산군	관공서	LGU	Public WiFi Free	Oct-16	충청북도 괴산군 칠성면 도정로 61	충청북도 괴산군 칠성면 도정리 238-2	충청북도 괴산군청	043-830-3772	36.7879379	127.8638205	2016-06-24
괴산군국민체육센터	1층 중앙로비 및 2층 복도 천장	충청북도	괴산군	서민·복지시설	LGU	Public WiFi Free	Nov-16	충청북도 괴산군 괴산읍 임꺽정로 113	충청북도 괴산군 괴산읍 서부리 654	충청북도 괴산군청	043-830-3772	36.814324	127.783504	2016-06-24
괴산군도서관	1층 중앙로비 및 2층 평생학습실앞	충청북도	괴산군	서민·복지시설	LGU	Public WiFi Free	Nov-16	충청북도 괴산군 괴산읍 읍내로13길 38	충청북도 괴산군 괴산읍 서부리 259-12	충청북도 괴산군청	043-830-3772	36.810845	127.792251	2016-06-24
지산1동주민센터	민원실	광주광역시	동구	관공서	LGU			광주광역시 동구 지산로 57		광주광역시 동구청	062-608-3085	35.1490161	126.9327667	2016-08-01
괴산군문화예술회관	무대 좌우측 벽면	충청북도	괴산군	서민·복지시설	LGU	Public WiFi Free	Nov-16	충청북도 괴산군 괴산읍 읍내로 262	충청북도 괴산군 괴산읍 동부리 751-10	충청북도 괴산군청	043-830-3772	36.806895	127.793768	2016-06-24
괴산군수화통역센터	1층 로비중앙 및종합자료실내 천장	충청북도	괴산군	서민·복지시설	LGU	Public WiFi Free	Nov-16	충청북도 괴산군 괴산읍 읍내로2길 27-10	충청북도 괴산군 괴산읍 서부리 383-1	충청북도 괴산군청	043-830-3772	36.806851	127.790911	2016-06-24
괴산군여성회관	1층 중앙로비 및 2층 회의실내	충청북도	괴산군	서민·복지시설	LGU	Public WiFi Free	Nov-16	충청북도 괴산군 괴산읍 읍내로6길 19-8	충청북도 괴산군 괴산읍 동부리 675-2	충청북도 괴산군청	043-830-3772	36.808956	127.791591	2016-06-24
괴산군장애인복지관	1층 및 2층 복도 천장	충청북도	괴산군	서민·복지시설	LGU	Public WiFi Free	Nov-16	충청북도 괴산군 괴산읍 동진천길 61	충청북도 괴산군 괴산읍 동부리 181	충청북도 괴산군청	043-830-3772	36.808009	127.797378	2016-06-24
괴산군청민원과	1층 중앙로비 및 2층 복도 천장	충청북도	괴산군	서민·복지시설	LGU	Public WiFi Free	Nov-16	충청북도 괴산군 괴산읍 임꺽정로 90	충청북도 괴산군 괴산읍 서부리 125	충청북도 괴산군청	043-830-3772	36.815344	127.786631	2016-06-24
충청북도자연학습원	지하층 및 AB동 천장	충청북도	괴산군	서민·복지시설	LGU	Public WiFi Free	Nov-16	충청북도 괴산군 청천면 화양로 1314-12	충청북도 괴산군 청천면 송면리 287-4	충청북도 괴산군청	043-830-3772	36.667458	127.844211	2016-06-24
수정2동주민센터	민원대앞	부산광역시	동구청	관공서	LGU			부산광역시 동구 수정중로11번길 23		부산광역시	051-888-4602	35.129982	129.0426	2016-09-26
달서구청소년수련관	전체	대구광역시	달서구	복지시설	LGU		Dec-13	대구광역시 달서구 상화로 420 (상인동)	대구광역시 달서구 상인동 1593-6	대구광역시 달서구청	053-667-2471	35.8072318	128.5418963	2016-01-01
달서구청소년문화의집	전체	대구광역시	달서구	복지시설	LGU		Dec-13	대구광역시 달서구 상화로 420 (상인동)	대구광역시 달서구 상인동 1593-6	대구광역시 달서구청	053-667-2471	35.8072318	128.5418963	2016-01-01
성당동 주민센터	민원실	대구광역시	달서구	관공서	LGU		Dec-13	대구광역시 달서구 야외음악당로13길 60 (성당동)	대구광역시 달서구 성당동 633-3	대구광역시 달서구청	053-667-2471	35.8429806	128.5320326	2016-01-01
두류1·2동 주민센터	민원실	대구광역시	달서구	관공서	LGU		Dec-13	대구광역시 달서구 성당로51길 32 (두류동)	대구광역시 달서구 두류동 841-6	대구광역시 달서구청	053-667-2471	35.8557314	128.5546613	2016-01-01
두류3동 주민센터	민원실	대구광역시	달서구	관공서	LGU		Dec-13	대구광역시 달서구 야외음악당로39길 24 (두류동)	대구광역시 달서구 두류동 484-17	대구광역시 달서구청	053-667-2471	35.853745	128.5379392	2016-01-01
본리동 주민센터	민원실	대구광역시	달서구	관공서	LGU		Dec-13	대구광역시 달서구 와룡로22길 8 (본리동)	대구광역시 달서구 본리동 64-1	대구광역시 달서구청	053-667-2471	35.8421393	128.519963	2016-01-01
감삼동 주민센터	민원실	대구광역시	달서구	관공서	LGU		Dec-13	대구광역시 달서구 감삼북길 119-10 (감삼동)	대구광역시 달서구 감삼동 136-2	대구광역시 달서구청	053-667-2471	35.8505265	128.5413489	2016-01-01
죽전동 주민센터	민원실	대구광역시	달서구	관공서	LGU		Dec-13	대구광역시 달서구 와룡로54길 28 (죽전동)	대구광역시 달서구 죽전동 204-12	대구광역시 달서구청	053-667-2471	35.8546865	128.5331787	2016-01-01
장기동 주민센터	민원실	대구광역시	달서구	관공서	LGU		Dec-13	대구광역시 달서구 장기로 277 (장기동)	대구광역시 달서구 장기동 817-2	대구광역시 달서구청	053-667-2471	35.8434311	128.512411	2016-01-01
용산1동 주민센터	민원실	대구광역시	달서구	관공서	LGU		Dec-13	대구광역시 달서구 용산로 212-7 (용산동)	대구광역시 달서구 용산동 934-6	대구광역시 달서구청	053-667-2471	35.8566749	128.513686	2016-01-01
용산2동 주민센터	민원실	대구광역시	달서구	관공서	LGU		Dec-13	대구광역시 달서구 선원로 278 (용산동)	대구광역시 달서구 용산동 499-7	대구광역시 달서구청	053-667-2471	35.858464	128.5054659	2016-01-01
이곡1동 주민센터	민원실	대구광역시	달서구	관공서	LGU		Dec-13	대구광역시 달서구 달구벌대로 1309 (이곡동)	대구광역시 달서구 이곡동 672-2	대구광역시 달서구청	053-667-2471	35.8516887	128.4931226	2016-01-01
이곡2동 주민센터	민원실	대구광역시	달서구	관공서	LGU		Dec-13	대구광역시 달서구 계대동문로 77 (이곡동)	대구광역시 달서구 이곡동 1191-3	대구광역시 달서구청	053-667-2471	35.8558419	128.4832866	2016-01-01
신당동 주민센터	민원실	대구광역시	달서구	관공서	LGU		Dec-13	대구광역시 달서구 선원로 60 (신당동)	대구광역시 달서구 신당동 1749-1	대구광역시 달서구청	053-667-2471	35.8590093	128.4813387	2016-01-01
월성1동 주민센터	민원실	대구광역시	달서구	관공서	LGU		Dec-13	대구광역시 달서구 조암남로 97 (월성동)	대구광역시 달서구 월성동 1396-3	대구광역시 달서구청	053-667-2471	35.8195662	128.5053642	2016-01-01
월성2동 주민센터	민원실	대구광역시	달서구	관공서	LGU		Dec-13	대구광역시 달서구 월성로 65 (월성동)	대구광역시 달서구 월성동 86-3	대구광역시 달서구청	053-667-2471	35.8309929	128.5107928	2016-01-01
진천동 주민센터	민원실	대구광역시	달서구	관공서	LGU		Dec-13	대구광역시 달서구 월배로 95-17 (진천동)	대구광역시 달서구 진천동 576-20	대구광역시 달서구청	053-667-2471	35.8147904	128.5067294	2016-01-01
상인1동 주민센터	민원실	대구광역시	달서구	관공서	LGU		Dec-13	대구광역시 달서구 상인서로 40 (상인동)	대구광역시 달서구 상인동 1528	대구광역시 달서구청	053-667-2471	35.8143103	128.5275367	2016-01-01
상인2동 주민센터	민원실	대구광역시	달서구	관공서	LGU		Dec-13	대구광역시 달서구 상원로 27 (상인동)	대구광역시 달서구 상인동 1453-7	대구광역시 달서구청	053-667-2471	35.812593	128.5187798	2016-01-01
상인3동 주민센터	민원실	대구광역시	달서구	관공서	LGU		Dec-13	대구광역시 달서구 상인로 25 (상인동)	대구광역시 달서구 상인동 1579	대구광역시 달서구청	053-667-2471	35.8101072	128.5327242	2016-01-01
도원동 주민센터	민원실	대구광역시	달서구	관공서	LGU		Dec-13	대구광역시 달서구 한실로 53 (도원동)	대구광역시 달서구 도원동 1429-5	대구광역시 달서구청	053-667-2471	35.8075231	128.5147115	2016-01-01
송현1동 주민센터	민원실	대구광역시	달서구	관공서	LGU		Dec-13	대구광역시 달서구 중흥로8길 41 (송현동)	대구광역시 달서구 송현동 1995	대구광역시 달서구청	053-667-2471	35.8291566	128.5372684	2016-01-01
송현2동 주민센터	민원실	대구광역시	달서구	관공서	LGU		Dec-13	대구광역시 달서구 월배로83길 120-14 (송현동)	대구광역시 달서구 송현동 528-3	대구광역시 달서구청	053-667-2471	35.8328273	128.5280961	2016-01-01
본동 주민센터	민원실	대구광역시	달서구	관공서	LGU		Dec-13	대구광역시 달서구 구마로26길 62 (본동)	대구광역시 달서구 본동 867-3	대구광역시 달서구청	053-667-2471	35.8344783	128.5235715	2016-01-01
섬들보호작업장	전체	대구광역시	달서구	복지시설	LGU		Dec-15	대구광역시 달서구 장산2길 34 (용산동)	대구광역시 달서구 용산동 939-8	대구광역시 달서구청	053-667-2471	35.8559461	128.5079803	2016-01-01
대구성로원	전체	대구광역시	달서구	복지시설	LGU		Dec-15	대구광역시 달서구 진천로3길 80 (진천동)	대구광역시 달서구 진천동 700	대구광역시 달서구청	053-667-2471	35.8105804	128.5036679	2016-01-01
대구학생문화센터	전체	대구광역시	달서구	복지시설	LGU		Dec-15	대구광역시 달서구 용산로 181 (용산동)	대구광역시 달서구 용산동 230-6	대구광역시 달서구청	053-667-2471	35.8530389	128.5119888	2016-01-01
자용모자복지관	전체	대구광역시	달서구	복지시설	LGU		Dec-15	대구광역시 달서구 달구벌대로301길 186 (용산동)	대구광역시 달서구 용산동 855-1	대구광역시 달서구청	053-667-2471	35.8582635	128.5141018	2016-01-01
월배(신)시장	전체	대구광역시	달서구	전통시장	LGU		Dec-15	대구광역시 달서구 월배로24길 13 (진천동)	대구광역시 달서구 진천동 241-3	대구광역시 달서구청	053-667-2471	35.8140612	128.5099052	2016-01-01
도원시장	전체	대구광역시	달서구	전통시장	LGU		Dec-15	대구광역시 달서구 도원로동길 8 (도원동)	대구광역시 달서구 도원동 1437-1	대구광역시 달서구청	053-667-2471	35.807606	128.5192544	2016-01-01
용산종합큰시장	전체	대구광역시	달서구	전통시장	LGU		Dec-15	대구광역시 달서구 달구벌대로301길 187-11 (용산동)	대구광역시 달서구 용산동 933	대구광역시 달서구청	053-667-2471	35.8580572	128.5136763	2016-01-01
성서와룡시장	전체	대구광역시	달서구	전통시장	LGU		Dec-15	대구광역시 달서구 성서서로69길 7 (신당동)	대구광역시 달서구 신당동 1788-3	대구광역시 달서구청	053-667-2471	35.8558224	128.4818316	2016-01-01
두류종합시장	전체	대구광역시	달서구	전통시장	LGU		Dec-15	대구광역시 달서구 당산동길 9 (성당동)	대구광역시 달서구 성당동 704-5	대구광역시 달서구청	053-667-2471	35.8454969	128.5276517	2016-01-01
수정4동주민센터	민원대앞	부산광역시	동구청	관공서	LGU			부산광역시 동구 망양로685번길 2		부산광역시	051-888-4602	35.127124	129.040675	2016-09-26
시흥ABC행복학습타운	강의실	경기도	시흥시	서민.복지시설	LGU	LGU+ Public WiFi Free/T Public WiFi Free	Sep-14	경기도 시흥시 소래산길 11 (대야동)	경기도 시흥시 대야동 332-1	경기도 시흥시청	031-310-2304	37.4491421	126.7849793	2015-08-31
수정5동주민센터	민원대앞	부산광역시	동구청	관공서	LGU			부산광역시 동구 망양로795번길 2		부산광역시	051-888-4602	35.133874	129.042387	2016-09-26
강화풍물시장	"1층,2층 상가"	인천광역시	강화군	편의시설	LGU	publicwififree	Dec-13	인천광역시 강화군 강화읍 중앙로 17-9		인천광역시 강화군청	032-930-3116	37.7422911	126.4921833	2016-05-16
강화군자원봉사센터	사무실내	인천광역시	강화군	서민·복지시설	LGU	publicwififree	Dec-14	인천광역시 강화군 강화읍 강화대로394 별관4층		인천광역시 강화군청	032-930-3116	37.7471721	126.4871793	2016-05-16
고인돌지역아동센터	센터내	인천광역시	강화군	서민·복지시설	LGU	publicwififree	Dec-14	인천광역시 강화군 하점면 강화대로 1089		인천광역시 강화군청	032-930-3116	37.7734341	126.4246703	2016-05-16
열매지역아동센터	센터내	인천광역시	강화군	서민·복지시설	LGU	publicwififree	Dec-14	인천광역시 강화군 강화읍 갑룡길 76-17		인천광역시 강화군청	032-930-3116	37.7439672	126.5013841	2016-05-16
인천광역시 강화군 교동면보건지소	1층로비	인천광역시	강화군	관공서	LGU	publicwififree	Dec-14	인천광역시 강화군 교동면 교동동로 485-13		인천광역시 강화군청	032-930-3116	37.7843862	126.2831032	2016-05-16
흥왕리보건진료소	진료실	인천광역시	강화군	관공서	LGU	publicwififree	Dec-14	인천광역시 강화군 화도면 해안남로1950		인천광역시 강화군청	032-930-3116	37.6077741	126.4147051	2016-05-16
삼선리보건진료소	진료실	인천광역시	강화군	관공서	LGU	publicwififree	Dec-14	인천광역시 강화군 교동면 교동북로222-1		인천광역시 강화군청	032-930-3116	37.7960583	126.2615682	2016-05-16
상용리보건진료소	진료실	인천광역시	강화군	관공서	LGU	publicwififree	Dec-14	인천광역시 강화군 교동면 교동동로208-3		인천광역시 강화군청	032-930-3116	37.7957981	126.3078311	2016-05-16
인천광역시 강화군 화도면사무소	민원실	인천광역시	강화군	관공서	LGU	publicwififree	Dec-14	인천광역시 강화군 화도면 마니산로 703-14		인천광역시 강화군청	032-930-3116	37.6322472	126.4203572	2016-05-16
인천광역시 강화군 강화읍주민자치센터	1층 안내실	인천광역시	강화군	관공서	LGU	publicwififree	Dec-14	인천광역시 강화군 강화읍 강화대로440번길10		인천광역시 강화군청	032-930-3116	37.7490611	126.4828782	2016-05-16
강화군보훈회관	"1,2층 로비"	인천광역시	강화군	서민·복지시설	LGU	publicwififree	Dec-14	인천광역시 강화군 강화읍 강화대로373		인천광역시 강화군청	032-930-3116	37.7449072	126.4879741	2016-05-16
강화군센터드림스타트	사무실내	인천광역시	강화군	관공서	LGU	publicwififree	Dec-14	인천광역시 강화군 강화읍 북문길11-1		인천광역시 강화군청	032-930-3116	37.7489862	126.4836862	2016-05-16
장애인회관	1층 로비	인천광역시	강화군	서민·복지시설	LGU	publicwififree	Dec-14	인천광역시 강화군 강화읍 강화대로371-1		인천광역시 강화군청	032-930-3116	37.7449073	126.4879742	2016-05-16
인천광역시 강화군 교동면사무소	민원실	인천광역시	강화군	관공서	LGU	publicwififree	Oct-15	인천광역시 강화군 교동면 교동동로 485-13		인천광역시 강화군청	032-930-3116	37.7844202	126.2829584	2016-05-16
교동주민자치센터	강당	인천광역시	강화군	편의시설	LGU	publicwififree	Oct-15	인천광역시 강화군 교동면 교동동로 485-13		인천광역시 강화군청	032-930-3116	37.7843015	126.2824808	2016-05-16
제자지역아동센터	공부방	인천광역시	강화군	서민·복지시설	LGU	publicwififree	Oct-15	인천광역시 강화군 강화읍 갑룡길 84		인천광역시 강화군청	032-930-3116	37.7432692	126.5021176	2016-05-16
밝은햇살지역아동센터	공부방	인천광역시	강화군	서민·복지시설	LGU	publicwififree	Oct-15	인천광역시 강화군 강화읍 북문길 6		인천광역시 강화군청	032-930-3116	37.7475166	126.484732	2016-05-16
좌천동주민센터	민원대앞	부산광역시	동구청	관공서	LGU			부산광역시 동구 좌천남로 19		부산광역시	051-888-4602	35.131432	129.049153	2016-09-26
예산운전면허시험장	시험장 내	충청남도	예산군	관공서	LGU	Public WiFi		충청남도 예산군 오가면 국사봉로 500	충청남도 예산군 오가면 국사봉로 500	충청남도 예산운전면허시험장	041-330-7400	36.6730557	126.7892827	2016-10-25
장애인종합복지관	복지관 내	충청남도	예산군	서민·복지시설	LGU	Public WiFi		충청남도 예산군 신암면 추사고택로 496	충청남도 예산군 신암면 신택리 174-3	충청남도 예산군청	041-339-7244	36.7619916	126.809558	2016-10-25
배산역	대합실	부산광역시	연제구	교통시설	LGU				부산광역시 연제구 연산동 1802	부산광역시 연제구청	051-665-4171	35.173459	129.095467	2015-12-31
자원봉사센터	봉사센터 내	충청남도	예산군	서민·복지시설	LGU	Public WiFi		충청남도 예산군 예산읍 산성공원2길 15	충청남도 예산군 예산읍 석양리 727	충청남도 예산군청	041-339-7244	36.7029029	126.8362844	2016-10-25
남구 보건소	민원실	대구광역시	남구	관공서	LGU	Public WiFi Free	Oct-13	대구광역시 남구 영선길 34	대구광역시 남구 대명동 2003번지	대구광역시 남구청	053-664-2472	35.8538156	128.5918331	2014-11-26
대덕문화전당	민원실	대구광역시	남구	관공서	LGU	Public WiFi Free	Mar-13	대구광역시 남구 앞산순환로 478	대구광역시 남구 대명9동 산201-4	대구광역시 남구청	053-664-2472	35.831315	128.5770017	2014-11-26
대구 남구청	민원실	대구광역시	남구	관공서	LGU	Public WiFi Free	Mar-13	대구광역시 남구 이천로 51	대구광역시 남구 봉덕1동 565-5	대구광역시 남구청	053-664-2472	35.8457915	128.5977724	2014-11-26
안지랑역	대합실	대구광역시	남구	교통시설	LGU	Public WiFi Free	Mar-13		대구광역시 남구 대명1동 6429-1	대구광역시 남구청	053-664-2472	35.8389769	128.5755931	2014-11-26
교대역	대합실	대구광역시	남구	교통시설	LGU	Public WiFi Free	Mar-13	대구광역시 남구 대명로54길 28-6	대구광역시 남구 대명5동 232	대구광역시 남구청	053-664-2472	35.8509933	128.5906132	2014-11-26
성당못역	대합실	대구광역시	남구	교통시설	LGU	Public WiFi Free	Mar-13		대구광역시 남구 대명6동 1044-2	대구광역시 남구청	053-664-2472	35.838037	128.5671845	2014-11-26
현충로역	대합실	대구광역시	남구	교통시설	LGU	Public WiFi Free	Mar-13		대구광역시 남구 대명6동 1219	대구광역시 남구청	053-664-2472	35.8389769	128.5755931	2014-11-26
대명역	대합실	대구광역시	남구	교통시설	LGU	Public WiFi Free	Mar-13	대구광역시 남구 대명로 지하 141	대구광역시 남구 대명6동 1291	대구광역시 남구청	053-664-2472	35.8346545	128.5619537	2014-11-26
영남대학교의료원	민원실	대구광역시	남구	복지시설	LGU	Public WiFi Free	Mar-13	대구광역시 남구 현충로 170	대구광역시 남구 대명5동 317 -1	대구광역시 남구청	053-664-2472	35.8473829	128.5853913	2014-11-26
간성읍주민센터	민원실	강원도	고성군	관공서	LGU	Public WiFi Free	2013-07-13	강원도 고성군 간성읍 간성로67번길 14	강원도 고성군 간성읍 하리 28번지	강원도 고성군청	033-680-3464	38.3783811	128.4670022	2015-09-21
거진읍주민센터	민원실	강원도	고성군	관공서	LGU	Public WiFi Free	2013-07-13	강원도 고성군 거진읍 자산천로 240	강원도 고성군 거진읍 송포리 634번지	강원도 고성군청	033-680-3464	38.4361011	128.4525615	2015-09-21
동해여객터미널	터미널 내 대합실	강원도	동해시	교통시설	LGU	Public WiFi Free	Oct-12	강원도 동해시 임항로 129	강원도 동해시 발한동 80-171	강원도 동해시청	033-530-2300	37.5435911	129.1134531	2016-09-27
동해도서관	동해도서관 내	강원도	동해시	서민·복지시설	LGU	Public WiFi Free	Oct-12	강원도 동해시 부곡5길 22	강원도 동해시 부곡동 12-1	강원도 동해시청	033-530-2300	37.5385461	129.1097921	2016-09-27
동해서민·복지시설	"동해서민·복지시설 구관, 신관, 장례식장"	강원도	동해시	서민·복지시설	LGU	Public WiFi Free	Oct-12	강원도 동해시 하평로 11	강원도 동해시 평릉동 190	강원도 동해시청	033-530-2300	37.5313831	129.1077851	2016-09-27
죽왕면주민센터	민원실	강원도	고성군	관공서	LGU	Public WiFi Free	2013-07-13	강원도 고성군 죽왕면 오호길 11	강원도 고성군 죽왕면 오호리 163번지	강원도 고성군청	033-680-3464	38.328758	128.5251853	2015-09-21
토성면주민센터	민원실	강원도	고성군	관공서	LGU	Public WiFi Free	2013-07-13	강원도 고성군 토성면 천진1길 4	강원도 고성군 토성면 천진리 163-1번지	강원도 고성군청	033-680-3464	38.257264	128.558906	2015-09-21
현내면주민센터	민원실	강원도	고성군	관공서	LGU	Public WiFi Free	2013-07-13	강원도 고성군 현내면 한나루로 67	강원도 고성군 현내면 대진리 200-6	강원도 고성군청	033-680-3464	38.494259	128.4276922	2015-09-21
간성터미널	대합실	강원도	고성군	편의시설	LGU	Public WiFi Free	2014-10-14	강원도 고성군 간성읍 간성로 24	강원도 고성군 간성읍 신안리 250-1	강원도 고성군청	033-680-3464	38.3790989	128.4724699	2015-09-21
고성청소년수련관	층간 복도	강원도	고성군	지역문화시설	LGU	Public WiFi Free	2014-10-14	강원도 고성군 간성읍 수성로 115-43	강원도 고성군 간성읍 상리 418-1	강원도 고성군청	033-680-3464	38.3753888	128.4604215	2015-09-21
간성시장	현대헤어샵 벽면 외 5개소	강원도	고성군	기타	LGU	Public WiFi Free	2014-10-14	강원도 고성군 간성읍 간성시장1길	강원도 고성군 간성읍 신안리 262	강원도 고성군청	033-680-3464	38.3794271	128.4700603	2015-09-21
거진보건지소	민원 대기실	강원도	고성군	관공서	LGU	Public WiFi Free	2014-10-14	강원도 고성군 거진읍 벌평로 21	강원도 고성군 거진읍 거진리 326-3	강원도 고성군청	033-680-3464	38.4459162	128.4519725	2015-09-21
현내보건지소	민원 대기실	강원도	고성군	관공서	LGU	Public WiFi Free	2014-10-14	강원도 고성군 현내면 대진6길 20	강원도 고성군 현내면 대진리 124-1	강원도 고성군청	033-680-3464	38.4992086	128.4236072	2015-09-21
죽왕보건지소	민원 대기실	강원도	고성군	관공서	LGU	Public WiFi Free	2014-10-14	강원도 고성군 죽왕면 심층수길 9	강원도 고성군 죽왕면 오호리 64-2	강원도 고성군청	033-680-3464	38.32541	128.5259271	2015-09-21
토성보건지소	민원 대기실	강원도	고성군	관공서	LGU	Public WiFi Free	2014-10-14	강원도 고성군 토성면 토성로 174	강원도 고성군 토성면 천진리 82-2	강원도 고성군청	033-680-3464	38.25973	128.5567103	2015-09-21
고성군 노인복지관	층간 복도	강원도	고성군	편의시설	LGU	Public WiFi Free	2014-10-14	강원도 고성군 간성읍 간성로67번길 13	강원도 고성군 간성읍 하리 37-2	강원도 고성군청	033-680-3464	38.3782889	128.4677486	2015-09-21
여성회관	층간 복도	강원도	고성군	관공서	LGU	Public WiFi Free	2014-10-14	강원도 고성군 간성읍 간성로 97	강원도 고성군 간성읍 상리 210-1	강원도 고성군청	033-680-3464	38.3802	128.4642377	2015-09-21
현내청소년문화의집	층간 복도	강원도	고성군	지역문화시설	LGU	Public WiFi Free	2014-10-14	강원도 고성군 현내면 대진2길 12	강원도 고성군 현내면 대진리 189-7	강원도 고성군청	033-680-3464	38.4937308	128.4272173	2015-09-21
거진시장	상인회사무실 입구 외 3개소	강원도	고성군	기타	LGU	Public WiFi Free	2014-10-14	강원도 고성군 거진읍 거진시장길	강원도 고성군 거진읍 거진리 272	강원도 고성군청	033-680-3464	38.4476934	128.454141	2015-09-21
거제시청소년수련관	수련관 내부	경상남도	거제시	관공서	LGU	public wifi free	Dec-16	경상남도 거제시 계룡로 175	경상남도 거제시 고현동 767	경상남도 거제해양관광개발공사	055-639-8161	34.8846477	128.6194662	2015-09-11
범일1동주민센터	민원대앞	부산광역시	동구청	관공서	LGU			부산광역시 동구 범상로12 (범일동1438-83)		부산광역시	051-888-4602	35.141307	129.0491	2016-09-26
동해국민체육센터	"1층 다목적실, 2층 실내체육관"	강원도	동해시	서민·복지시설	LGU	Public WiFi Free	Aug-13	강원도 동해시 덕골길 10	강원도 동해시 천곡동 산118-5	강원도 동해시청	033-530-2300	37.5176341	129.0981951	2016-09-27
동해중앙시장	동해중앙시장 공연장	강원도	동해시	기타	LGU	Public WiFi Free	Sep-14	강원도 동해시 중앙시장길 10	강원도 동해시 발한동 12-2	강원도 동해시청	033-530-2300	37.5509481	129.1083811	2016-09-27
동해시외버스터미널	터미널 내 대합실	강원도	동해시	교통시설	LGU	Public WiFi Free	Sep-14	강원도 동해시 동해대로 5443	강원도 동해시 평릉동 166-4	강원도 동해시청	033-530-2300	37.5276941	129.1040551	2016-09-27
동해시청소년수련관	청소년수련관 내	강원도	동해시	서민·복지시설	LGU	Public WiFi Free	Sep-14	강원도 동해시 승지로 315	강원도 동해시 부곡동 산103	강원도 동해시청	033-530-2300	37.5366481	129.0697921	2016-09-27
동해시장애인보호작업장	"장애인보호작업장 1,2층"	강원도	동해시	서민·복지시설	LGU	Public WiFi Free	Sep-14	강원도 동해시 공단7로 31	강원도 동해시 구호동 236-2	강원도 동해시청	033-530-2300	37.4753831	129.1385651	2016-09-27
동해시장애인심부름센터	장애인심부름센터 내	강원도	동해시	서민·복지시설	LGU	Public WiFi Free	Sep-14	강원도 동해시 한섬로 28-22	강원도 동해시 천곡동 376-17	강원도 동해시청	033-530-2300	37.5193561	129.1080641	2016-09-27
동해시노인종합복지관	동해시노인종합복지관 구관 및 신관	강원도	동해시	서민·복지시설	LGU	Public WiFi Free	Sep-14	강원도 동해시 감추7길 50	강원도 동해시 천곡동 84-14	강원도 동해시청	033-530-2300	37.5150721	129.1227561	2016-09-27
동해향로청소년문화의집	청소년문화의집 내	강원도	동해시	서민·복지시설	LGU	Public WiFi Free	Sep-14	강원도 동해시 향로1길 10	강원도 동해시 발한동 95-1	강원도 동해시청	033-530-2300	37.5427711	129.1077041	2016-09-27
동해시송정청소년문화의집	청소년문화의집 내	강원도	동해시	서민·복지시설	LGU	Public WiFi Free	Sep-14	강원도 동해시 동해항2길 15	강원도 동해시 송정동 851-41	강원도 동해시청	033-530-2300	37.4997051	129.1286181	2016-09-27
묵호시장	묵호시장 내	강원도	동해시	기타	LGU	Public WiFi Free	Sep-14	강원도 동해시 일출로 59-1	강원도 동해시 묵호동 15-61	강원도 동해시청	033-530-2300	37.55232371	129.1141818	2016-09-27
다문화가족지원센터	다문화가족지원센터 내	강원도	동해시	서민·복지시설	LGU	Public WiFi Free	Jul-15	강원도 동해시 천곡1길 22-1	강원도 동해시 천곡동 234-5	강원도 동해시청	033-530-2300	37.52695211	129.1133574	2016-09-27
동해남부재래시장	동해남부재래시장 내	강원도	동해시	기타	LGU	Public WiFi Free	Jul-15	강원도 동해시 청운1길 29	강원도 동해시 동회동 442	강원도 동해시청	033-530-2300	37.48714471	129.1055386	2016-09-27
동해시건강가정지원센터	동해시건강가정지원센터 내	강원도	동해시	서민·복지시설	LGU	Public WiFi Free	Jul-15	강원도 동해시 천곡1길 20-3	강원도 동해시 천곡동 808-1	강원도 동해시청	033-530-2300	37.52696911	129.1139414	2016-09-27
발한문화의집	발한문화의집 내	강원도	동해시	서민·복지시설	LGU	Public WiFi Free	Jul-15	강원도 동해시 발한로 211	강원도 동해시 발한동 239-1	강원도 동해시청	033-530-2300	37.54845951	129.1080257	2016-09-27
북평문화의집	북평문화의집 내	강원도	동해시	서민·복지시설	LGU	Public WiFi Free	Jul-15	강원도 동해시 대동로 137	강원도 동해시 북평동 127-1	강원도 동해시청	033-530-2300	37.48376581	129.1250102	2016-09-27
동해시노인요양원	동해시노인요양원 내	강원도	동해시	서민·복지시설	LGU	Public WiFi Free	Jul-15	강원도 동해시 승지로 60-5	강원도 동해시 부곡동 232	강원도 동해시청	033-530-2300	37.54045011	129.0939302	2016-09-27
천곡문화의집	천곡문화의집 내	강원도	동해시	서민·복지시설	LGU	Public WiFi Free	Jul-15	강원도 동해시 천곡로 98-1	강원도 동해시 천곡동 842	강원도 동해시청	033-530-2300	37.52290431	129.1160644	2016-09-27
북삼도서관	북삼도서관 내	강원도	동해시	서민·복지시설	LGU	Public WiFi Free	Jul-15	강원도 동해시 효자로 649	강원도 동해시 동회동 229	강원도 동해시청	033-530-2300	37.49268851	129.1044104	2016-09-27
발한도서관	발한도서관 내	강원도	동해시	서민·복지시설	LGU	Public WiFi Free	Jul-15	강원도 동해시 해안로 535	강원도 동해시 발한동 241-9	강원도 동해시청	033-530-2300	37.54820381	129.1059792	2016-09-27
무릉계곡	무릉계곡관리사무소	강원도	동해시	관광	LGU	Public WiFi Free	Jul-15	강원도 동해시 삼화로 538	강원도 동해시 삼화동 859	강원도 동해시청	033-530-2300	37.46346331	129.0193739	2016-09-27
무릉계곡	힐링캠프장 내	강원도	동해시	관광	LGU	Public WiFi Free	Jul-15	강원도 동해시 삼화로 538	강원도 동해시 삼화동 859	강원도 동해시청	033-530-2300	37.46346331	129.0193739	2016-09-27
묵호항	묵호항 내	강원도	동해시	기타	LGU	Public WiFi Free	Jul-15	강원도 동해시 일출로 82	강원도 동해시 묵호진동 15	강원도 동해시청	033-530-2300	37.55254871	129.1167904	2016-09-27
묵호등대	묵호등대 내	강원도	동해시	관광	LGU	Public WiFi Free	Jul-15	강원도 동해시 해맞이길 289	강원도 동해시 묵호진동 2-215	강원도 동해시청	033-530-2300	37.55450811	129.1184369	2016-09-27
묵호항 수변공원	수변공원 내	강원도	동해시	편의시설	LGU	Public WiFi Free	May-16	강원도 동해시 일출로 88	강원도 동해시 묵호진동 13-64	강원도 동해시청	033-530-2300	37.55097191	129.1177729	2016-09-27
대학로야외공연장	대학로야외공연장 내	강원도	동해시	서민·복지시설	LGU	Public WiFi Free	May-16	강원도 동해시 대학로 20	강원도 동해시 천곡동 1073-2	강원도 동해시청	033-530-2300	37.52233241	129.1132519	2016-09-27
동해웰빙레포츠타운	동해웰빙레포츠타운 내	강원도	동해시	서민·복지시설	LGU	Public WiFi Free	May-16	강원도 동해시 덕골길 10	강원도 동해시 천곡동 363-1	강원도 동해시청	033-530-2300	37.51645971	129.1018639	2016-09-27
추암해변(촛대바위)	추암해변 내	강원도	동해시	관광	LGU	Public WiFi Free	May-16	강원도 동해시 촛대바위길 17-2	강원도 동해시 추암동 산69	강원도 동해시청	033-530-2300	37.47941481	129.1593404	2016-09-27
동해문화원	동해문화원	강원도	동해시	서민·복지시설	LGU	Public WiFi Free	May-16	강원도 동해시 평원로?17	강원도 동해시 천곡동 809-22	강원도 동해시청	033-530-2300	37.52687211	129.1144861	2016-09-27
무릉계곡야영장	무릉계곡 야영장내	강원도	동해시	관광	LGU	Public WiFi Free	May-16	강원도 동해시 삼화로 467	강원도 동해시 삼화동 858-10	강원도 동해시청	033-530-2300	37.46419671	129.0247909	2016-09-27
문화예술회관	문화예술회관 내	강원도	동해시	서민·복지시설	LGU	Public WiFi Free	May-16	강원도 동해시 평원로 15	강원도 동해시 천곡동 809-1	강원도 동해시청	033-530-2300	37.5264661	129.1152192	2016-09-27
밀양버스터미널	2층 사무실	경상남도	밀양시	기타	LGU	Pubic WiFi Free		경상남도 밀양시 북성로 7	경상남도 밀양시 내이동 1186-2	LGU+	055-359-5614	35.4989	128.743791	2016-09-29
밀양전통시장1	2층 사무실	경상남도	밀양시	기타	LGU	Pubic WiFi Free		경상남도 밀양시 상설시장3길 18-6	경상남도 밀양시 내일동 583-1	LGU+	055-359-5614	35.493359	128.753383	2016-09-29
밀양청소년문화의 집	1층 통신실	경상남도	밀양시	기타	LGU	Pubic WiFi Free		경상남도 밀양시 중앙로 346	경상남도 밀양시 내일동 268-17	LGU+	055-359-5614	35.493678	128.754168	2016-09-29
선주원	1층 사무실	경상남도	밀양시	기타	LGU	Pubic WiFi Free		경상남도 밀양시 단장면 용소길 257	경상남도 밀양시 단장면 감물리 513-2	LGU+	055-359-5614	35.448059	128.889076	2016-09-29
세화노인요양원	1층 입구	경상남도	밀양시	기타	LGU	Pubic WiFi Free		경상남도 밀양시 부북면 동암3길 38-23	경상남도 밀양시 부북면 전사포리 329-1	LGU+	055-359-5614	35.475084	128.738802	2016-09-29
여성회관	1층 사무실	경상남도	밀양시	기타	LGU	Pubic WiFi Free		경상남도 밀양시 중앙로 268	경상남도 밀양시 삼문동 4-32	LGU+	055-359-5614	35.487031	128.755797	2016-09-29
우리들노인요양원	1층 사무실	경상남도	밀양시	기타	LGU	Pubic WiFi Free		경상남도 밀양시 부북면 감운로 123-13	경상남도 밀양시 부북면 감천리 538-3	LGU+	055-359-5614	35.496897	128.727988	2016-09-29
우리들요양원	1층 사무실	경상남도	밀양시	기타	LGU	Pubic WiFi Free		경상남도 밀양시 부북면 춘기1길 7	경상남도 밀양시 부북면 춘화리 233-2	LGU+	055-359-5614	35.520525	128.728917	2016-09-29
이레	2층 사무실	경상남도	밀양시	기타	LGU	Pubic WiFi Free		경상남도 밀양시 하남읍 수산로 211-1	경상남도 밀양시 하남읍 수산리 362-41	LGU+	055-359-5614	35.369393	128.735848	2016-09-29
크레파스	1층 사무실	경상남도	밀양시	기타	LGU	Pubic WiFi Free		경상남도 밀양시 무안면 운정1길 76-99	경상남도 밀양시 무안면 운정리 28	LGU+	055-359-5614	35.470721	128.651352	2016-09-29
해울장애인보호작업장	1층 사무실	경상남도	밀양시	기타	LGU	Pubic WiFi Free		경상남도 밀양시 무안면 운정길 76-99	경상남도 밀양시 무안면 운정리 28	LGU+	055-359-5614	35.506983	128.688438	2016-09-29
노인요양시설 효심마을	1층 사무실	경상남도	밀양시	기타	LGU	Pubic WiFi Free		경상남도 밀양시 무안면 무안로 18	경상남도 밀양시 무안면 신법리 83	LGU+	055-359-5614	34.479154	128.658977	2016-09-29
감문	사무실내	경상북도	김천시	관공서	LGU	Public-wi-fi	Jan-15	경상북도 김천시 감문면 감문로 105		Lgu+	054-420-6100	36.142446	128.14812	2016-10-12
감천면	사무실내	경상북도	김천시	관공서	LGU	Public-wi-fi	Jan-15	경상북도 김천시 감천면 금감로 1555		Lgu+	054-420-6100	36.066207	128.124581	2016-10-12
감천보건지소	사무실내	경상북도	김천시	관공서	LGU	Public-wi-fi	Jan-13	경상북도 김천시 감천면 금감로 1552		Lgu+	054-420-6100	36.0658	128.125712	2016-10-12
개령면	사무실내	경상북도	김천시	관공서	LGU	Public-wi-fi	Jan-15	경상북도 김천시 개령면 동부길 59-1		Lgu+	054-420-6100	36.167275	128.187607	2016-10-12
개령보건지소	사무실내	경상북도	김천시	관공서	LGU	Public-wi-fi	Jan-13	경상북도 김천시 개령면 서부3길 107		Lgu+	054-420-6100	36.167184	128.186619	2016-10-12
구성면	사무실내	경상북도	김천시	관공서	LGU	Public-wi-fi	Jan-14	경상북도 김천시 구성면 상좌원1길 10		Lgu+	054-420-6100	36.032558	128.04773	2016-10-12
김천시보건소	사무실내	경상북도	김천시	관공서	LGU	Public-wi-fi	Jan-13	경상북도 김천시 시청1길 1 민원실		Lgu+	054-420-6100	36.139714	128.113306	2016-10-12
김천시청 민원실	사무실내	경상북도	김천시	관공서	LGU	Public-wi-fi	Jan-14	경상북도 김천시 시청1길 1 민원실		Lgu+	054-420-6100	36.139714	128.113306	2016-10-12
남면	사무실내	경상북도	김천시	관공서	LGU	Public-wi-fi	Jan-15	경상북도 김천시 남면 옥산길44		Lgu+	054-420-6100	36.107924	128.189529	2016-10-12
남면보건지소	사무실내	경상북도	김천시	관공서	LGU	Public-wi-fi	Jan-13	경상북도 김천시 남면 옥산길 9		Lgu+	054-420-6100	36.107092	128.187713	2016-10-12
농소보건지소	사무실내	경상북도	김천시	관공서	LGU	Public-wi-fi	Jan-13	경상북도 김천시 농소면 농남로 42		Lgu+	054-420-6100	36.105797	128.172746	2016-10-12
대덕면	사무실내	경상북도	김천시	관공서	LGU	Public-wi-fi	Jan-15	경상북도 김천시 대덕면 남김천대로		Lgu+	054-420-6100	35.981351	128.029193	2016-10-12
대덕보건지소	사무실내	경상북도	김천시	관공서	LGU	Public-wi-fi	Jan-13	경상북도 김천시 대덕면 남김천대로 723		Lgu+	054-420-6100	35.917913	127.969173	2016-10-12
대신동	사무실내	경상북도	김천시	관공서	LGU	Public-wi-fi	Jan-14	경상북도 김천시 신양1길 22		Lgu+	054-420-6100	36.1353	128.115857	2016-10-12
대한교통	건물대기실	경상북도	김천시	서민·복지시설	LGU	Public-wi-fi	Jan-15	경상북도 김천시 자산로 148		Lgu+	054-420-6100	36.123326	128.118131	2016-10-12
대항면	사무실내	경상북도	김천시	관공서	LGU	Public-wi-fi	Jan-14	경상북도 김천시 대항면 황악로 1563		Lgu+	054-420-6100	36.124497	128.022154	2016-10-12
봉산면	사무실내	경상북도	김천시	관공서	LGU	Public-wi-fi	Jan-15	경상북도 김천시 봉산면 예지 송정길		Lgu+	054-420-6100	36.142307	128.061236	2016-10-12
부곡동	사무실내	경상북도	김천시	관공서	LGU	Public-wi-fi	Jan-14	경상북도 김천시 부곡길 2		Lgu+	054-420-6100	36.124399	128.08932	2016-10-12
부항면	사무실내	경상북도	김천시	관공서	LGU	Public-wi-fi	Jan-15	경상북도 김천시 부항면 부항로 834		Lgu+	054-420-6100	35.990095	127.955298	2016-10-12
부항보건지소	사무실내	경상북도	김천시	관공서	LGU	Public-wi-fi	Jan-13	경상북도 김천시 부항면 부항로 798		Lgu+	054-420-6100	35.989385	127.958873	2016-10-12
아포읍보건지소	사무실내	경상북도	김천시	관공서	LGU	Public-wi-fi	Jan-13	경상북도 김천시 아포읍 국사길 57		Lgu+	054-420-6100	36.159828	128.253082	2016-10-12
어모면보건지소	사무실내	경상북도	김천시	관공서	LGU	Public-wi-fi	Jan-13	경상북도 김천시 어모면 어모문화3길 9-33		Lgu+	054-420-6100	36.180009	128.1173	2016-10-12
율곡동 주민센터	민원대	경상북도	김천시	관공서	LGU	Public-wi-fi	Jan-15	경상북도 김천시 혁신사로21		Lgu+	054-420-6100	36.116349	128.185129	2016-10-12
장애복지관	1층 2층	경상북도	김천시	관공서	LGU	Public-wi-fi	Jan-15	경상북도 김천시 환경로 136-6		Lgu+	054-420-6100	36.132734	128.141433	2016-10-12
조마면	사무실내	경상북도	김천시	관공서	LGU	Public-wi-fi	Jan-15	경상북도 김천시 조마면 강곡1길 32		Lgu+	054-420-6100	36.034929	128.09903	2016-10-12
조마보건지소	사무실내	경상북도	김천시	관공서	LGU	Public-wi-fi	Jan-13	경상북도 김천시 조마면 강곡1길 43-13		Lgu+	054-420-6100	36.035928	128.099333	2016-10-12
중앙시장	시장내	경상북도	김천시	관공서	LGU	Public-wi-fi	Jan-15	경상북도 김천시 중앙시장3길3		Lgu+	054-420-6100	36.119052	128.124948	2016-10-12
증산면	사무실내	경상북도	김천시	관공서	LGU	Public-wi-fi	Jan-15	경상북도 김천시 증산면 증산로 945-7		Lgu+	054-420-6100	35.901777	128.035237	2016-10-12
지례면	사무실내	경상북도	김천시	관공서	LGU	Public-wi-fi	Jan-15	경상북도 김천시 지례면 상부길 101		Lgu+	054-420-6100	35.984808	128.026661	2016-10-12
지례보건지소	사무실내	경상북도	김천시	관공서	LGU	Public-wi-fi	Jan-13	경상북도 김천시 지례면 상부길 101		Lgu+	054-420-6100	35.984808	128.026661	2016-10-12
지좌동주민센터	민원대	경상북도	김천시	관공서	LGU	Public-wi-fi	Jan-15	경상북도 김천시 체육공원길21		Lgu+	054-420-6100	36.119732	128.144528	2016-10-12
평화남산	사무실내	경상북도	김천시	관공서	LGU	Public-wi-fi	Jan-14	경상북도 김천시 평화7길 12-7		Lgu+	054-420-6100	36.125288	128.109504	2016-10-12
황금동주민센터	사무실내	경상북도	김천시	관공서	LGU	Public-wi-fi	Jan-14	경상북도 김천시 강변로 178		Lgu+	054-420-6100	36.110466	128.123395	2016-10-12
완도읍사무소	본청 및 민원실	전라남도	완도군	관공서	LGU	Public Wify Free	15-Jan	전라남도 완도군 완도읍 개포로62번길 9		전라남도 완도군청	061-550-5200	34.31675	126.7455	2016-09-05
보건의료원	전체 공간	전라남도	완도군	관공서	LGU	Public Wify Free	15-Jan	전라남도 완도군 완도읍 농공단지길 34		전라남도 완도군청	061-550-5200	34.336213	126.73067	2016-09-05
범일5동주민센터	민원대앞	부산광역시	동구청	관공서	LGU			부산광역시 동구 성남로47번길 13		부산광역시	051-888-4602	35.130499	129.053788	2016-09-26
완도여객터미널	여객선 내부 전체	전라남도	완도군	교통시설	LGU	Public Wify Free	15-Jan	전라남도 완도군 완도읍 장보고대로 351		전라남도 완도군청	061-550-5200	34.316281	126.761258	2016-09-05
완도군립도서관	도서관 전체	전라남도	완도군	관공서	LGU	Public Wify Free	15-Jan	전라남도 완도군 완도읍 주도길 3-1		전라남도 완도군청	061-550-5200	34.312814	126.754925	2016-09-05
남부노인복지관	1층~3층(1층EPS실)	충청남도	당진시	기타	LGU	U+net3c2b/U+net1c4b	14-Dec	충청남도 당진시 합덕읍 예덕로 411	충청남도 당진시 합덕읍 운산리 675-62	충청남도 당진시청	041-350-3302	36.8107282	126.7655347	2016-05-31
농업기술센터 정보화교육장(당진)	대강당내(강당계단 내 왼쪽진열장)	충청남도	당진시	관공서	LGU	U+net3c2b/U+net1c4b	14-Dec	충청남도 당진시 구봉로 46	충청남도 당진시 원당동 486	충청남도 당진시청	041-350-3302	36.913399	126.6499558	2016-05-31
여성의 전당(당진)	"1층,교욱안내실,여성단체협의회(민원실안쪽)"	충청남도	당진시	지역문화시설	LGU	U+net3c2b/U+net1c4b	14-Dec	충청남도 당진시 남부로 8	충청남도 당진시 행정동 214-11	충청남도 당진시청	041-350-3302	36.882912	126.6167408	2016-05-31
합덕터미널	"터미널 입구,매표소,승강장(매표소 내)"	충청남도	당진시	기타	LGU	U+net3c2b/U+net1c4b	14-Dec	충청남도 당진시 합덕읍 면천로 1724	충청남도 당진시 합덕읍 운산리 293	충청남도 당진시청	041-350-3302	36.809958	126.7752309	2016-05-31
신평교육문화스포츠센터	1층안내데스크 천정(안내데스크 냉장고책상)	충청남도	당진시	지역문화시설	LGU	U+net3c2b/U+net1c4b	14-Dec	충청남도 당진시 신평면 말목길 20	충청남도 당진시 신평면 금천리 1009-40	충청남도 당진시청	041-350-3302	36.8889167	126.7631393	2016-05-31
합덕읍사무소	1층민원실(민원실 랙)	충청남도	당진시	관공서	LGU	U+net3c2b/U+net1c4b	14-Dec	충청남도 당진시 합덕읍 예덕로 403	충청남도 당진시 합덕읍 운산리 산86-1	충청남도 당진시청	041-350-3302	36.8098672	126.7638428	2016-05-31
석문면사무소	1층민원실천정(총무팀 랙)	충청남도	당진시	관공서	LGU	U+net3c2b/U+net1c4b	14-Dec	충청남도 당진시 석문면 통정3길 2-1	충청남도 당진시 석문면 통정리 393-2	충청남도 당진시청	041-350-3302	36.9821445	126.5910133	2016-05-31
신평면사무소	1층민원실천정(총무팀 랙)	충청남도	당진시	관공서	LGU	U+net3c2b/U+net1c4b	14-Dec	충청남도 당진시 신평면 신평로 834	충청남도 당진시 신평면 금천리 458	충청남도 당진시청	041-350-3302	36.8854758	126.7731316	2016-05-31
화순재래시장	화순재래시장	전라남도	화순군	편의시설	LGU	Public WiFi FREE	15-Dec	전라남도 화순군 화순읍 시장길 42	전라남도 화순군 화순읍 삼천리 621	전라남도 화순군청	061-375-0330	35.0592932	126.9836066	2015-08-24
사랑의 집	사랑의 집	전라남도	화순군	서민·복지시설	LGU	Public WiFi FREE	15-Dec	전라남도 화순군 동면 구봉산길 65	전라남도 화순군 동면 복암리 455	전라남도 화순군청	061-371-5005	35.0362542	127.078078	2015-08-24
햇살장애인주간보호센터	햇살장애인주간보호센터	전라남도	화순군	서민·복지시설	LGU	Public WiFi FREE	15-Dec	전라남도 화순군 화순읍 일심3길 8	전라남도 화순군 화순읍 일심리 799	전라남도 화순군청	061-373-8004	35.0560612	126.9932103	2015-08-24
하늘사랑주간보호센터	하늘사랑주간보호센터	전라남도	화순군	서민·복지시설	LGU	Public WiFi FREE	15-Dec	전라남도 화순군 화순읍 소천길 8	전라남도 화순군 화순읍 신기리 247-1	전라남도 화순군청	061-371-3215	35.0652958	126.988015	2015-08-24
나드리노인복지회관	나드리노인복지회관	전라남도	화순군	서민·복지시설	LGU	Public WiFi FREE	15-Dec	전라남도 화순군 화순읍 학포로 2642	전라남도 화순군 화순읍 강정리 139	전라남도 화순군청	061-371-1166	35.0459532	126.9679818	2015-08-24
수원실내체육관	관중석	경기도	수원시	지역문화시설	LGU	Public WiFi Free	2012	경기도 수원시 장안구 경수대로 893	경기도 수원시 장안구 조원1동 775	경기도 수원시청	031-228-2299	37.29788845	127.0107508	2015-09-01
매산로2가 거리_2	거리	경기도	수원시	기타	LGU	Public WiFi Free	2012	경기도 수원시 팔달구 매산로26(매산로2가)	경기도 수원시 팔달구 매산로2가65-19	경기도 수원시청	031-228-2299	37.26759591	127.0043879	2015-09-01
매산로2가 거리_1	거리	경기도	수원시	기타	LGU	Public WiFi Free	2012	경기도 수원시 팔달구 갓매산로 51(매산로2가)	경기도 수원시 팔달구 매산로2가 27	경기도 수원시청	031-228-2299	37.26895828	127.0045323	2015-09-01
경기도의회사무처	사무실	경기도	수원시	관공서	LGU	Public WiFi Free	2012	경기도 수원시 팔달구 효원로1(매산로3가)	경기도 수원시 팔달구 매산로3가	경기도 수원시청	031-228-2299	37.27108445	127.0094842	2015-09-01
경기도청	민원실	경기도	수원시	관공서	LGU	Public WiFi Free	2012	경기도 수원시 팔달구 효원로1(매산로3가)	경기도 수원시 팔달구 매산로3가	경기도 수원시청	031-228-2299	37.27108445	127.0094842	2015-09-01
화순 군내버스터미널	화순 군내버스터미널	전라남도	화순군	편의시설	LGU	Public WiFi FREE	15-Dec	전라남도 화순군 화순읍 자치샘로 26	전라남도 화순군 화순읍 교리 228	전라남도 화순군청	062-373-5776	35.0621368	126.9839237	2015-08-24
화순 시외버스터미널	화순 시외버스터미널	전라남도	화순군	편의시설	LGU	Public WiFi FREE	15-Dec	전라남도 화순군 화순읍 시장길 7	전라남도 화순군 화순읍 삼천리 738	전라남도 화순군청	061-374-2254	35.0561569	126.9831528	2015-08-24
농업기술센터	농업기술센터	전라남도	화순군	관공서	LGU	Public WiFi FREE	15-Dec	전라남도 화순군 능주면 학포로 2275	전라남도 화순군 능주면 만수리 330	전라남도 화순군청	061-379-5402	35.0161568	126.9522132	2015-08-24
보건소	보건소	전라남도	화순군	관공서	LGU	Public WiFi FREE	15-Dec	전라남도 화순군 화순읍 쌍충로 62	전라남도 화순군 화순읍 삼천리 719	전라남도 화순군청	061-379-5303	35.0574034	126.9821538	2015-08-24
화순읍사무소	화순읍사무소	전라남도	화순군	관공서	LGU	Public WiFi FREE	15-Dec	전라남도 화순군 화순읍 중앙로 20-4	전라남도 화순군 화순읍 삼천리 623	전라남도 화순군청	061-379-5514	35.0599497	126.98438	2015-08-24
한천면사무소	한천면사무소	전라남도	화순군	관공서	LGU	Public WiFi FREE	15-Dec	전라남도 화순군 한천면 죽헌로 265	전라남도 화순군 한천면 한계리 546-1	전라남도 화순군청	061-379-5021	34.9778268	126.9987724	2015-08-24
능주면사무소	능주면사무소	전라남도	화순군	관공서	LGU	Public WiFi FREE	15-Dec	전라남도 화순군 능주면 죽수길 73	전라남도 화순군 능주면 석고리 254-1	전라남도 화순군청	061-379-5061	34.9900071	126.9580361	2015-08-24
동면사무소	동면사무소	전라남도	화순군	관공서	LGU	Public WiFi FREE	15-Dec	전라남도 화순군 동면 충의로 751	전라남도 화순군 동면 장동리 582	전라남도 화순군청	061-379-5131	35.0298246	127.038645	2015-08-24
자혜직업재활센터	실내	경기도	수원시	복지시설	LGU	Public WiFi Free	2013	경기도 수원시 권선구 수봉로 43 (탑동)	경기도 수원시 권선구 탑동 516-1	경기도 수원시청	031-228-2299	37.26496634	126.9771053	2015-09-01
수봉재활원	실내	경기도	수원시	복지시설	LGU	Public WiFi Free	2013	경기도 수원시 장안구 장안로458번길 142 (이목동)	경기도 수원시 장안구 이목동 23-3	경기도 수원시청	031-228-2299	37.32409566	126.9752551	2015-09-01
바다의별	실내	경기도	수원시	복지시설	LGU	Public WiFi Free	2013	경기도 수원시 장안구 장안로458번길 142 (이목동)	경기도 수원시 장안구 이목동 23-3	경기도 수원시청	031-228-2299	37.32409566	126.9752551	2015-09-01
바다의별직업재활센터	실내	경기도	수원시	복지시설	LGU	Public WiFi Free	2013	경기도 수원시 권선구 수봉로 47 (탑동)	경기도 수원시 권선구 탑동 508-6	경기도 수원시청	031-228-2299	37.26540247	126.9772224	2015-09-01
미나리광시장	거리	경기도	수원시	편의시설	LGU	Public WiFi Free	2013	경기도 수원시 팔달구 행궁로 88 (교동)	경기도 수원시 팔달구 교동 3-11	경기도 수원시청	031-228-2299	37.27457985	127.015483	2015-09-01
남문로데오시장	거리	경기도	수원시	편의시설	LGU	Public WiFi Free	2013	경기도 수원시 팔달구 행궁로 92 (교동)	경기도 수원시 팔달구 교동 3-3	경기도 수원시청	031-228-2299	37.27442127	127.015492	2015-09-01
파장시장	거리	경기도	수원시	편의시설	LGU	Public WiFi Free	2014	경기도 수원시 장안구 파장로68번길 36 (파장동)	경기도 수원시 장안구 파장동 573-41	경기도 수원시청	031-228-2299	37.30750096	126.9925191	2015-09-01
장안문거북시장	거리	경기도	수원시	편의시설	LGU	Public WiFi Free	2014	경기도 수원시 장안구 수성로364번길 53(영화동)	경기도 수원시 장안구 영화동 274-19	경기도 수원시청	031-228-2299	37.29138269	127.0133618	2015-09-01
수원시근로자종합복지관	실내	경기도	수원시	복지시설	LGU	Public WiFi Free	2014	경기도 수원시 장안구 덕영대로 559(천천동)	경기도 수원시 장안구 천천동 522번지	경기도 수원시청	031-228-2299	37.29497905	126.982203	2015-09-01
경기도여성비젼센터	실내	경기도	수원시	복지시설	LGU	Public WiFi Free	2014	경기도 수원시 팔달구 효원로308번길 34 (인계동)	경기도 수원시 팔달구 인계동 1129번지	경기도 수원시청	031-228-2299	37.25921859	127.0341207	2015-09-01
철원군청 1민원실	민원실내	강원도	철원군	관공서	LGU	Public_WiFi_FREE	Dec-14	강원도 철원군 갈말읍 삼부연로 51	강원도 철원군 갈말읍 신철원리 649	강원도 철원군청	033-450-5114	38.146704	127.313382	2015-10-30
철원군청 2민원실	민원실내	강원도	철원군	관공서	LGU	Public_WiFi_FREE	Dec-14	강원도 철원군 갈말읍 삼부연로 51	강원도 철원군 갈말읍 신철원리 649	강원도 철원군청	033-450-5114	38.146704	127.313382	2015-10-30
강원도 장애인 종합 복지관 철원분관	복지관1층	강원도	철원군	관공서	LGU	Public_WiFi_FREE	Dec-14	강원도 철원군 서면 와수로136번길 5	강원도 철원군 서면 와수리 1133-43	강원도 철원군청	033-450-5114	38.236053	127.436408	2015-10-30
갈말도서관	도서관1층	강원도	철원군	관공서	LGU	Public_WiFi_FREE	Nov-15	강원도 철원군 갈말읍 명성로179번길 21	강원도 철원군 갈말읍 지포리 85	강원도 철원군청	033-450-5114	38.147346	127.305089	2015-10-30
갈말읍사무소	민원실내	강원도	철원군	관공서	LGU	Public_WiFi_FREE	Nov-15	강원도 철원군 갈말읍 명성로 178	강원도 철원군 갈말읍 신철원리 991-1	강원도 철원군청	033-450-5114	38.14744	127.308136	2015-10-30
근남면사무소	민원실내	강원도	철원군	관공서	LGU	Public_WiFi_FREE	Nov-15	강원도 철원군 근남면 하오재로 2050	강원도 철원군 근남면 육단리 302-6	강원도 철원군청	033-450-5114	38.237017	127.470959	2015-10-30
김화읍사무소	민원실내	강원도	철원군	관공서	LGU	Public_WiFi_FREE	Nov-15	강원도 철원군 김화읍 호국로 6510	강원도 철원군 김화읍 학사리 261-1	강원도 철원군청	033-450-5114	38.249626	127.421351	2015-10-30
동송읍사무소	민원실내	강원도	철원군	관공서	LGU	Public_WiFi_FREE	Nov-15	강원도 철원군 동송읍 이평로 133	강원도 철원군 동송읍 이평리 860-1	강원도 철원군청	033-450-5114	38.206683	127.208395	2015-10-30
서면사무소	민원실내	강원도	철원군	관공서	LGU	Public_WiFi_FREE	Nov-15	강원도 철원군 서면 신술2길 40	강원도 철원군 서면 자등리 754	강원도 철원군청	033-450-5114	38.164579	127.415677	2015-10-30
와수출장소	민원실내	강원도	철원군	관공서	LGU	Public_WiFi_FREE	Nov-15	강원도 철원군 서면 와수로184번길 6-31	강원도 철원군 서면 와수리 1171-35	강원도 철원군청	033-450-5114	38.238463	127.439934	2015-10-30
잠곡보건진료소	진료소1층	강원도	철원군	관공서	LGU	Public_WiFi_FREE	Nov-15	강원도 철원군 근남면 하오재로 1308-1	강원도 철원군 근남면 잠곡리 140-1	강원도 철원군청	033-450-5114	38.179106	127.46493	2015-10-30
철원읍사무소	민원실내	강원도	철원군	관공서	LGU	Public_WiFi_FREE	Nov-15	강원도 철원군 철원읍 금학로279번길 15-1	강원도 철원군 철원읍 화지리 38-1	강원도 철원군청	033-450-5114	38.212153	127.212888	2015-10-30
화강문화센타	센터내	강원도	철원군	관공서	LGU	Public_WiFi_FREE	Nov-15	강원도 철원군 서면 약수로 3	강원도 철원군 서면 와수리 562	강원도 철원군청	033-450-5114	38.244921	127.427652	2015-10-30
남평읍	전라남도 나주시 남평읍사무소	전라남도	나주시	관공서	LGU	Public WiFi@FREE	Dec-16	전라남도 나주시 남평2로 42-7	전라남도 나주시 남평리 23-13	전라남도 나주시 남평읍사무소	061-339-3503	35.0471283	126.8391667	2014-09-15
세지면	전라남도 나주시 세지면사무소	전라남도	나주시	관공서	LGU	Public WiFi@FREE	Dec-16	전라남도 나주시 동창로 130-12	전라남도 나주시 오봉리 184	전라남도 나주시 세지면사무소	061-339-3609	34.919751	126.7494168	2015-09-15
왕곡면	전라남도 나주시 왕곡면사무소	전라남도	나주시	관공서	LGU	Public WiFi@FREE	Dec-16	전라남도 나주시 터진목길 10	전라남도 나주시 덕산리 560-35	전라남도 나주시 왕곡면사무소	061-339-3634	34.9681779	126.6697941	2015-09-15
반남면	전라남도 나주시 반남면사무소	전라남도	나주시	관공서	LGU	Public WiFi@FREE	Dec-16	전라남도 나주시 자미로 6	전라남도 나주시 흥덕리 28	전라남도 나주시 반남면사무소	061-339-3658	34.9037801	126.6515826	2015-09-15
공산면	전라남도 나주시 공산면사무소	전라남도	나주시	관공서	LGU	Public WiFi@FREE	Dec-16	전라남도 나주시 공산로 128-4	전라남도 나주시 금곡리 862-3	전라남도 나주시 공산면사무소	061-339-3683	34.9432099	126.6081797	2015-09-15
다시면	전라남도 나주시 다시면사무소	전라남도	나주시	관공서	LGU	Public WiFi@FREE	Dec-16	전라남도 나주시 다시로 175-24	전라남도 나주시 월태리590-38	전라남도 나주시 다시면사무소	061-339-3709	35.0192808	126.6372436	2015-09-15
문평면	전라남도 나주시 문평면사무소	전라남도	나주시	관공서	LGU	Public WiFi@FREE	Dec-16	전라남도 나주시 체암로 302	전라남도 나주시 안곡리 120-10	전라남도 나주시 문평면사무소	061-339-3734	35.057673	126.602955	2015-09-15
노안면	전라남도 나주시 노안면사무소	전라남도	나주시	관공서	LGU	Public WiFi@FREE	Dec-16	전라남도 나주시 금산로 14	전라남도 나주시 금동리 221-6	전라남도 나주시 노안면사무소	061-339-3759	35.076873	126.731649	2015-09-15
장평종합상가	장평종합상가 내	경상남도	거제시	기타	LGU	Public WIFI Free	Dec-15	경상남도 거제시 장평로 37	경상남도 거제시 장평동 장평종합상가	경상남도 거제시청	055-639-4051	34.8908874	128.6130269	2016-06-01
거제시청	거제시청 민원실	경상남도	거제시	관공서	LGU	Public WIFI Free	Dec-15	경상남도 거제시 계룡로 125	경상남도 거제시 고현동 717	경상남도 거제시청	055-639-4051	34.8809054	128.6130924	2016-06-01
성로육아원	성로육아원 내	경상남도	거제시	서민·복지시설	LGU	Public WIFI Free	Dec-15	경상남도 거제시 거제면 기성로5길 17	경상남도 거제시 거제면 서정리 성로육아원	경상남도 거제시청	055-639-4051	34.8517737	128.5881927	2016-06-01
성지원	성지원 내	경상남도	거제시	서민·복지시설	LGU	Public WIFI Free	Dec-15	경상남도 거제시 거제대로 3679-13	경상남도 거제시 옥포1동 195-1	경상남도 거제시청	055-639-4051	34.8875479	128.6833122	2016-06-01
반야원	반야원 내	경상남도	거제시	서민·복지시설	LGU	Public WIFI Free	Dec-15	경상남도 거제시 동부면 율포로 555-20	경상남도 거제시 동부면 부춘리 322	경상남도 거제시청	055-639-4051	34.8073875	128.5995429	2016-06-01
장승포시외버스터미널	장승포시외버스터미널 대합실 내	경상남도	거제시	교통시설	LGU	Public WIFI Free	Dec-15	경상남도 거제시 장승로 98	경상남도 거제시 장승포동 687	경상남도 거제시청	055-639-4051	34.8753614	128.7308734	2016-06-01
장승포유람선터미널 (거제여객터미널)	장승포유람선 선착장 대합실 내	경상남도	거제시	교통시설	LGU	Public WIFI Free	Dec-15	경상남도 거제시 장승로 98	경상남도 거제시 장승포동 장승포유람선 터미널	경상남도 거제시청	055-639-4051	34.8631835	128.7242798	2016-06-01
민들레집	"민들레집 내 체육관, 민원실 등"	경상남도	거제시	서민·복지시설	LGU	Public WIFI Free	Dec-15	경상남도 거제시 거제대로 3063	경상남도 거제시 장승포동 521-4	경상남도 거제시청	055-639-4051	34.8668415	128.7213175	2016-06-01
거제시심부름센터	민원실 및 휴게실 내	경상남도	거제시	서민·복지시설	LGU	Public WIFI Free	Dec-15	경상남도 거제시 계룡로 72	경상남도 거제시 고현동 1036-4	경상남도 거제시청	055-639-4051	34.8770133	128.6254299	2016-06-01
장평도서관	도서관 내	경상남도	거제시	관공서	LGU	Public GIGA WIFI@GEOJE	May-15	경상남도 거제시 장평3로 10	경상남도 거제시 장평동 174	경상남도 거제시청	055-639-4051	34.8892668	128.6094765	2016-06-01
옥포도서관	도서관 내	경상남도	거제시	관공서	LGU	Public GIGA WIFI@GEOJE	May-15	경상남도 거제시 진목로 20 거제시립옥포도서관	경상남도 거제시 옥포2동 1291-6	경상남도 거제시청	055-639-4051	34.8969975	128.6875465	2016-06-01
수월도서관	도서관 내	경상남도	거제시	관공서	LGU	Public GIGA WIFI@GEOJE	May-15	경상남도 거제시 수양로 471	경상남도 거제시 양정동 962-1	경상남도 거제시청	055-639-4051	34.8881366	128.6446341	2016-06-01
장승포도서관	도서관 내	경상남도	거제시	관공서	LGU	Public GIGA WIFI@GEOJE	May-15	경상남도 거제시 신부로 36 장승포시립도서관	경상남도 거제시 장승포동 262-1	경상남도 거제시청	055-639-4051	34.8694389	128.7226046	2016-06-01
강북노인복지관	복지관내	대구광역시	북구	서민·복지시설	LGU			대구광역시 북구 칠곡중앙대로 91길 21	대구광역시 북구 관음동 1372	대구광역시 북구청	053-665-2474	35.93733	128.55818	2016-06-13
금천면	전라남도 나주시 금천면사무소	전라남도	나주시	관공서	LGU	Public WiFi@FREE	Dec-16	전라남도 나주시 금영로 934	전라남도 나주시 오강리 250-1	전라남도 나주시 금천면사무소	061-339-3559	35.031713	126.753477	2015-09-15
산포면	전라남도 나주시 산포면사무소	전라남도	나주시	관공서	LGU	Public WiFi@FREE	Dec-16	전라남도 나주시 산포로 468-15	전라남도 나주시 매성리 1266-1	전라남도 나주시 산포면사무소	061-339-3584	35.041149	126.8057299	2015-09-15
다도면	전라남도 나주시 다도면사무소	전라남도	나주시	관공서	LGU	Public WiFi@FREE	Dec-16	전라남도 나주시 다도로 759	전라남도 나주시 신동리 309-3	전라남도 나주시 다도면사무소	061-339-3784	34.948409	126.827421	2015-09-15
봉황면	전라남도 나주시 봉황면사무소	전라남도	나주시	관공서	LGU	Public WiFi@FREE	Dec-16	전라남도 나주시 봉황로 753	전라남도 나주시 죽석리 547	전라남도 나주시 봉황면사무소	061-339-3608	34.959175	126.784526	2015-09-15
송월동	전라남도 나주시 송월동주민센터	전라남도	나주시	관공서	LGU	Public WiFi@FREE	Dec-16	전라남도 나주시 토계길 61	전라남도 나주시 토계동 596	전라남도 나주시 송월동주민센터	061-339-3833	35.018474	126.724879	2015-09-15
영강동	전라남도 나주시 영강동주민센터	전라남도	나주시	관공서	LGU	Public WiFi@FREE	Dec-16	전라남도 나주시 삼영1길 8	전라남도 나주시 삼영동 159-6	전라남도 나주시 영강동주민센터	061-339-3854	35.005006	126.707019	2015-09-15
동강면	전라남도 나주시 동강면사무소	전라남도	나주시	관공서	LGU	Public WiFi@FREE	Dec-16	전라남도 나주시 인동길 28	전라남도 나주시 동강면 인동리 369-3	전라남도 나주시 동강면사무소	061-339-3534	34.939434	126.564117	2016-11-02
금남동	전라남도 나주시 금남동주민센터	전라남도	나주시	관공서	LGU	Public WiFi@FREE	Dec-16	전라남도 나주시 금성관길 9	전라남도 나주시 금계동 15-1	전라남도 나주시 금남동주민센터	061-339-3873	35.032022	126.716643	2016-11-02
성북동	전라남도 나주시 성북동주민센터	전라남도	나주시	관공서	LGU	Public WiFi@FREE	Dec-16	전라남도 나주시 성북2길 6	전라남도 나주시 성북동 144	전라남도 나주시 성북동주민센터	061-339-3893	35.034962	126.719451	2016-11-02
영산동	전라남도 나주시 영산동주민센터	전라남도	나주시	관공서	LGU	Public WiFi@FREE	Dec-16	전라남도 나주시 예향로 3872	전라남도 나주시 영산동 18	전라남도 나주시 영산동주민센터	061-339-3913	34.999718	126.714007	2016-11-02
이창동	전라남도 나주시 이창동주민센터	전라남도	나주시	관공서	LGU	Public WiFi@FREE	Dec-16	전라남도 나주시 영산포로 182-7	전라남도 나주시 이창동 147-1	전라남도 나주시 이창동주민센터	061-339-3933	34.997529	126.710596	2016-11-02
빛가람동	전라남도 나주시 빛가람동주민센터	전라남도	나주시	관공서	LGU	Public WiFi@FREE	Dec-16	전라남도 나주시 빛가람로 719	전라남도 나주시 빛가람동 202	전라남도 나주시 빛가람동주민센터	061-339-3953	35.027173	126.790361	2016-11-02
청소년문화의집	통신실	강원도	인제군	복지시설	LGU	Public WiFi	2014-12-01	강원도 인제군 북면 금강로60-23	강원도 인제군 원통리 662-4	강원도 인제군청	033-818-5501	38.0733411	128.1221691	2016-07-01
하늘내린센터	통신실	강원도	인제군	복지시설	LGU	Public WiFi	2014-12-01	강원도 인제군 비봉로44번길100	강원도 인제군 남북리 388	강원도 인제군청	033-818-5501	38.0440181	128.0953821	2016-07-01
인제보건소	통신실	강원도	인제군	관공서	LGU	Public WiFi	2014-12-01	강원도 인제군 인제로140번길34	강원도 인제군 남북리 789-1	강원도 인제군청	033-818-5501	38.0348331	128.1008071	2016-07-01
복지타운	통신실	강원도	인제군	복지시설	LGU	Public WiFi	2014-12-01	강원도 인제군 북면 금강로62	강원도 인제군 원통리 661-3	강원도 인제군청	033-818-5501	38.0731571	128.1220081	2016-07-01
기린면보건지소	통신실	강원도	인제군	관공서	LGU	Public WiFi	2014-12-01	강원도 인제군 기린면 기린로58번길5	강원도 인제군 현리 425-10	강원도 인제군청	033-818-5501	37.5726881	128.1908211	2016-07-01
서화면보건지소	통신실	강원도	인제군	관공서	LGU	Public WiFi	2014-12-01	강원도 인제군 서화면 천도양지길66-15	강원도 인제군 천도리 1012-1	강원도 인제군청	033-818-5501	38.1315571	128.1201991	2016-07-01
상남면보건지소	통신실	강원도	인제군	관공서	LGU	Public WiFi	2014-12-01	강원도 인제군 상남면 상남로42번길	강원도 인제군 상남리 135	강원도 인제군청	033-818-5501	37.5224881	128.1533451	2016-07-01
구청 민원실	1층민원실내	부산광역시	동구청	관공서	LGU			부산광역시 동구 구청로1		부산광역시	051-888-4602	35.129275	129.045325	2016-09-26
구청 홍보관	2층 홍보관	부산광역시	동구청	관공서	LGU			부산광역시 동구 구청로1		부산광역시	051-888-4602	35.129275	129.045325	2016-09-26
구청보건소	민원대앞	부산광역시	동구청	관공서	LGU			부산광역시 동구 구청로1		부산광역시	051-888-4602	35.129275	129.045325	2016-09-26
초량1동주민센터	민원대앞	부산광역시	동구청	관공서	LGU			부산광역시 동구 중앙대로179번길 33		부산광역시	051-888-4602	35.113957	129.03695	2016-09-26
초량2동주민센터	민원대앞	부산광역시	동구청	관공서	LGU			부산광역시 동구 중앙대로209번길 30		부산광역시	051-888-4602	35.116557	129.038463	2016-09-26
경북의회 도민의방	건물 내	대구광역시	북구	관공서	LGU			대구광역시 북구 연암로 40	대구광역시 북구 산격동 1445-3	대구광역시 북구청	053-665-2474	35.89253	128.60056	2016-06-13
경북지방경찰청	건물 내	대구광역시	북구	관공서	LGU			대구광역시 북구 연암로 40	대구광역시 북구 산격동 1445-3	대구광역시 북구청	053-665-2474	35.89253	128.60056	2016-06-13
경북지방경찰청 별관	건물 내	대구광역시	북구	관공서	LGU			대구광역시 북구 연암로 40	대구광역시 북구 산격동 1445-3	대구광역시 북구청	053-665-2474	35.89253	128.60056	2016-06-13
시민종합운동장	운동장 일대	대구광역시	북구	편의시설	LGU			대구광역시 북구 고성로35길 12-1	대구광역시 북구 고성동3가 6-8	대구광역시 북구청	053-665-2474	35.8816	128.58508	2016-06-13
강북고용센터	건물 내	대구광역시	북구	편의시설	LGU			대구광역시 북구 칠곡중앙대로 318	대구광역시 북구 태전동 420-1	대구광역시 북구청	053-665-2474	35.92403	128.54733	2016-06-13
대구북구청	민원실	대구광역시	북구	관공서	LGU			대구광역시 북구 옥산로 65	대구광역시 북구 침산동 447-16	대구광역시 북구청	053-665-2474	35.8857	128.58285	2016-06-13
대구오페라하우스	건물 내	대구광역시	북구	편의시설	LGU			대구광역시 북구 호암로 15	대구광역시 북구 칠성동2가 115-5	대구광역시 북구청	053-665-2474	35.88347	128.59223	2016-06-13
대구재활산재병원	건물 내	대구광역시	북구	편의시설	LGU			대구광역시 북구 학정로 515	대구광역시 북구 학정동 533	대구광역시 북구청	053-665-2474	35.95082	128.56396	2016-06-13
대현첨단요양병원	대기실	대구광역시	북구	서민·복지시설	LGU			대구광역시 북구 대현로 19	대구광역시 북구 대현동 230-1	대구광역시 북구청	053-665-2474	35.88568	128.58295	2016-06-13
산격3동 거리_1	산격3동 일대	대구광역시	북구	편의시설	LGU			대구광역시 북구 대학로17길 1	대구광역시 북구 산격동 1399	대구광역시 북구청	053-665-2474	35.89244	128.60867	2016-06-13
산격3동 거리_2	산격3동 일대	대구광역시	북구	편의시설	LGU			대구광역시 북구 대학로17길 1	대구광역시 북구 산격동 1399	대구광역시 북구청	053-665-2474	35.89244	128.60867	2016-06-13
유니버시아드레포츠센터	건물 내	대구광역시	북구	편의시설	LGU			대구광역시 북구 호국로57길 6	대구광역시 북구 서변동 1724-1	대구광역시 북구청	053-665-2474	35.928	128.59795	2016-06-13
칠성역	건물 내	대구광역시	북구	편의시설	LGU			대구광역시 북구 칠성남로 222	대구광역시 북구 칠성동1가 278-1	대구광역시 북구청	053-665-2474	35.87613	128.60517	2016-06-13
태전중앙시장	태전중앙시장 일대	대구광역시	북구	서민·복지시설	LGU			대구광역시 북구 태전로 15	대구광역시 북구 태전동 156-1	대구광역시 북구청	053-665-2474	35.92166	128.5449	2016-06-13
한국토지주택공사	건물 내	대구광역시	북구	편의시설	LGU			대구광역시 북구 원대로 130	대구광역시 북구 침산동 416-4	대구광역시 북구청	053-665-2474	35.88882	128.58375	2016-06-13
동구노인복지관	복지관내	부산광역시	동구청	복지시설	LGU			부산광역시 동구 홍곡중로 5번길 24(수정동)		부산광역시	051-888-4602	35.12584	129.0403	2016-09-26
초량3동주민센터	민원대앞	부산광역시	동구청	관공서	LGU			부산광역시 동구 초량상로 112		부산광역시	051-888-4602	35.121357	129.03975	2016-09-26
자양동 주민센터	1층 민원실	대전광역시	동구	관공서	LGU	public wifi	2014-01-01	대전광역시 동구 백룡로 16(자양동)	대전광역시 동구 자양동 60-2	대전광역시 동구청	042-251-4174	36.3354571	127.4486544	2015-08-31
용운시장	용운시장	대전광역시	동구	서민·복지시설	LGU	public wifi	2014-01-01	대전광역시 동구 새울로 91번길14-22	대전광역시 동구 용운동 351-1	대전광역시 동구청	042-251-4174	36.327393	127.4609642	2015-08-31
부산진남문시장	시장내	부산광역시	동구청	기타	LGU			부산광역시 동구 범일로65번길?8 (범일동)		부산광역시	051-888-4602	35.136453	129.058785	2016-09-26
자유도매시장	시장내	부산광역시	동구청	기타	LGU			부산광역시 동구 조방로 48(범일동)		부산광역시	051-888-4602	35.141115	129.0611	2016-09-26
부산진시장	시장내	부산광역시	동구청	기타	LGU			부산광역시 동구 진시장로?24 (범일동)		부산광역시	051-888-4602	35.136358	129.058846	2016-09-26
통영종합버스터미널	전체	경상남도	통영시	교통시설	LGU			경상남도 통영시 광도면 죽림4로 24	경상남도 통영시 광도면 죽림리 1569	한국정보화진흥원	1899-4876	34.889955	128.411575	2016-04-30
한국해양소년단	전체	경상남도	통영시	서민·복지시설	LGU			경상남도 통영시 발개로 194	경상남도 통영시 도남동 340-5	한국정보화진흥원	1899-4876	34.825249	128.426525	2016-04-30
통영지부 여객터미널	전체	경상남도	통영시	교통시설	LGU			경상남도 통영시 통영해안로 234	경상남도 통영시 서호동 316	한국정보화진흥원	1899-4876	34.839676	128.420411	2016-04-30
부강 재래시장	세종특별자치시 부강면 부강리 1146-1	세종특별자치시		편의시설	LGU		13-Dec	세종특별자치시 부강4길 27	세종특별자치시 부강면 부강리 1146-1	세종특별자치시청	044-120	36.5998746	127.3003294	2015-08-18
조치원 보건소	세종특별자치시 조치원읍 건강길 16	세종특별자치시		서민·복지시설	LGU		13-Dec	세종특별자치시 조치원읍 건강길 16	세종특별자치시 조치원읍 교리 129-1	세종특별자치시청	044-120	36.6055124	127.2964826	2015-08-18
연기면 민원실	세종특별자치시 연기면 당산로 81	세종특별자치시		관공서	LGU		13-Dec	세종특별자치시 연기면 당산로 81	세종특별자치시 연기면 한별리 149-1	세종특별자치시청	044-120	36.5411561	127.2731789	2015-08-18
연서면 민원실	세종특별자치시 연서면 대첩로 238	세종특별자치시		관공서	LGU		13-Dec	세종특별자치시 연서면 대첩로 238	세종특별자치시 연서면 성제리 293	세종특별자치시청	044-120	36.5924297	127.2715055	2015-08-18
소정면 민원실	세종특별자치시 소정면 소정구길 204	세종특별자치시		관공서	LGU		13-Dec	세종특별자치시 소정면 소정구길 204	세종특별자치시 소정면 소정리 48	세종특별자치시청	044-120	36.7221911	127.1582248	2015-08-18
한솔동 민원실	세종특별자치시 노을3로 85	세종특별자치시		관공서	LGU		13-Dec	세종특별자치시 노을3로 85	세종특별자치시 한솔동 산8-1	세종특별자치시청	044-120	36.4791299	127.25452	2015-08-18
한솔동 주민도서관	세종특별자치시 한솔동 산8-1	세종특별자치시		편의시설	LGU		13-Dec	세종특별자치시 노을3로 85	세종특별자치시 한솔동 산8-1	세종특별자치시청	044-120	36.4791299	127.25452	2015-08-18
연기면 보건지소	세종특별자치시 연기면 한별리 618-2	세종특별자치시		관공서	LGU		13-Dec	세종특별자치시 연기면 당산로 81-1	세종특별자치시 연기면 한별리 618-2	세종특별자치시청	044-120	36.5412152	127.2740152	2015-08-18
연서면 보건지소	세종특별자치시 연서면 성제리 293	세종특별자치시		관공서	LGU		13-Dec	세종특별자치시 연서면 대첩로 238	세종특별자치시 연서면 성제리 293	세종특별자치시청	044-120	36.5924297	127.2715055	2015-08-18
한솔동 보건지소	세종특별자치시 한솔동 산6	세종특별자치시		관공서	LGU		13-Dec	세종특별자치시 노을3로 90	세종특별자치시 한솔동 산6	세종특별자치시청	044-120	36.4791299	127.25452	2015-08-18
농어민체육관	세종특별자치시 연서면 월하천로 301	세종특별자치시		편의시설	LGU		13-Dec	세종특별자치시 연서면 월하천로 301	세종특별자치시 연서면 쌍전리 15-1	세종특별자치시청	044-120	36.5722445	127.2844674	2015-08-18
연기사랑마을	세종특별자치시 전의면 양지편길 13-6	세종특별자치시		기타	LGU		13-Dec	세종특별자치시 전의면 양지편길 13-6	세종특별자치시 전의면 양곡리 363	세종특별자치시청	044-120	36.6406347	127.1778777	2015-08-18
한국신체장애인협회 세종시 지회	세종특별자치시 조치원읍 군청로 86	세종특별자치시		서민·복지시설	LGU		13-Dec	세종특별자치시 조치원읍 군청로 86	세종특별자치시 조치원읍 죽림리 102	세종특별자치시청	044-120	36.592384	127.2938695	2015-08-18
신안1리 노인회관	세종특별자치시 조치원읍 신안1리 344-2	세종특별자치시		서민·복지시설	LGU		13-Dec	세종특별자치시 조치원읍 섭골길 73	세종특별자치시 조치원읍 신안1리 344-2	세종특별자치시청	044-120	36.6167114	127.2867716	2015-08-18
사랑의마을	세종특별자치시 연서면 기룡리 173-2	세종특별자치시		서민·복지시설	LGU		13-Dec	세종특별자치시 연서면 효교동길 123-2	세종특별자치시 연서면 기룡리 173-2	세종특별자치시청	044-120	36.5849527	127.236811	2015-08-18
세종우리요양원	세종특별자치시 연서면 두루봉길 7-14	세종특별자치시		서민·복지시설	LGU		13-Dec	세종특별자치시 연서면 두루봉길 7-14	세종특별자치시 연서면 성제리 564-2	세종특별자치시청	044-120	36.5770037	127.2686139	2015-08-18
사랑의마을 노인요양 공동생활가정	세종특별자치시 연서면 기룡리 173-2	세종특별자치시		서민·복지시설	LGU		13-Dec	세종특별자치시 연서면 효교동길 123-2	세종특별자치시 연서면 기룡리 173-2	세종특별자치시청	044-120	36.5848723	127.2367432	2015-08-18
행복너싱홈	세종특별자치시 연동면 내판리 417	세종특별자치시		서민·복지시설	LGU		13-Dec	세종특별자치시 연동면 새말다복동길 65	세종특별자치시 연동면 내판리 417	세종특별자치시청	044-120	36.5510692	127.3206419	2015-08-18
봉암2리 노인회관	세종특별자치시 연서면 봉암리 442-1	세종특별자치시		기타	LGU		13-Dec	세종특별자치시 연서면 봉암길 100	세종특별자치시 연서면 봉암리 442-1	세종특별자치시청	044-120	36.5597078	127.2872227	2015-08-18
상동	민원실	전라남도	목포시	관공서	LGU	Public WiFi		전라남도 목포시 상리로1번길 32	전라남도 목포시 상동 744-2	전라남도 목포시청	061-270-3300	34.813878	126.41443	2016-10-20
조치원 푸르지오 노인회관	세종특별자치시 조치원읍 대우푸르지오아파트 MDF실	세종특별자치시		기타	LGU		13-Dec	세종특별자치시 조치원읍 도원1로 16	세종특별자치시 조치원읍 신흥리 398	세종특별자치시청	044-120	36.5923989	127.2897754	2015-08-18
영명보육원(법인)	세종특별자치시 연서면 월하리 1103-46	세종특별자치시		서민·복지시설	LGU		13-Dec	세종특별자치시 연서면 월성로 239	세종특별자치시 연서면 월하리 1103-46	세종특별자치시청	044-120	36.5881327	127.2743826	2015-08-18
금남대평시장	세종특별자치시 금남면 대평시장1길 2	세종특별자치시		편의시설	LGU		14-Dec	세종특별자치시 금남면 대평시장1길 2	세종특별자치시 금남면 용포리 192-4	세종특별자치시청	044-120	36.4657848	127.281901	2015-08-18
동림권역커뮤니티센터	세종특별자치시 전동면 청송리 453-2	세종특별자치시		편의시설	LGU		14-Dec	세종특별자치시 전동면 청송리 453-2	세종특별자치시 전동면 청송리 453-2	세종특별자치시청	044-120	36.6658537	127.2449606	2015-08-18
농업기술센터	세종특별자치시 연서면 월하천로 289	세종특별자치시		보건시설	LGU		14-Dec	세종특별자치시 연서면 월하천로 289	세종특별자치시 연서면 쌍전리 16	세종특별자치시청	044-120	36.5726005	127.2833289	2015-08-18
